"station_id","name","lat","lon","capacity","num_bikes_available","num_docks_available","land","stadt","anbieter","timestamp"
"1","LEOPOLD II",50.836304,4.41505,20,13,7,"BE","Bruessel","Villo (cyclocity/JCDecaux)","2026-07-01 04:02:33"
"2","ELOY",50.836151,4.326019,25,12,12,"BE","Bruessel","Villo (cyclocity/JCDecaux)","2026-07-01 04:02:33"
"3","PORTE DE FLANDRE / VLAAMSEPOORT",50.853203,4.341823,21,9,11,"BE","Bruessel","Villo (cyclocity/JCDecaux)","2026-07-01 04:02:33"
"4","JARDIN AUX FLEURS / BLOEMENHOF",50.847865,4.343521,20,10,9,"BE","Bruessel","Villo (cyclocity/JCDecaux)","2026-07-01 04:02:33"
"5","",50.846755,4.352001,44,0,0,"BE","Bruessel","Villo (cyclocity/JCDecaux)","2026-07-01 04:02:33"
"6","GARE CENTRALE / CENTRAAL STATION",50.845333,4.356475,40,11,26,"BE","Bruessel","Villo (cyclocity/JCDecaux)","2026-07-01 04:02:33"
"7","PARC / PARK",50.846319,4.362244,25,9,14,"BE","Bruessel","Villo (cyclocity/JCDecaux)","2026-07-01 04:02:33"
"8","ARTS-LOI / KUNST-WET",50.845683,4.368582,42,12,28,"BE","Bruessel","Villo (cyclocity/JCDecaux)","2026-07-01 04:02:33"
"9","ANNEESSENS",50.844045,4.345048,35,4,29,"BE","Bruessel","Villo (cyclocity/JCDecaux)","2026-07-01 04:02:33"
"10","CHAPELLE / KAPELLEKERK",50.841345,4.351729,20,5,15,"BE","Bruessel","Villo (cyclocity/JCDecaux)","2026-07-01 04:02:33"
"11","SABLON / ZAVEL",50.840405,4.356998,17,0,17,"BE","Bruessel","Villo (cyclocity/JCDecaux)","2026-07-01 04:02:33"
"12","TRONE / TROON",50.840458,4.365981,32,9,23,"BE","Bruessel","Villo (cyclocity/JCDecaux)","2026-07-01 04:02:33"
"13","LEMONNIER",50.840184,4.341324,25,11,14,"BE","Bruessel","Villo (cyclocity/JCDecaux)","2026-07-01 04:02:33"
"14","PORTE DE NAMUR / NAAMSEPOORT",50.838816,4.361557,42,20,9,"BE","Bruessel","Villo (cyclocity/JCDecaux)","2026-07-01 04:02:33"
"15","MONTGOMERY",50.837036,4.406826,25,13,12,"BE","Bruessel","Villo (cyclocity/JCDecaux)","2026-07-01 04:02:33"
"16","LOUISE / LOUIZA",50.835968,4.355508,40,6,27,"BE","Bruessel","Villo (cyclocity/JCDecaux)","2026-07-01 04:02:33"
"17","COMTE DE FLANDRE / GRAAF VAN VLAANDEREN",50.855358,4.339465,18,9,5,"BE","Bruessel","Villo (cyclocity/JCDecaux)","2026-07-01 04:02:33"
"18","GUTENBERG",50.84771,4.377552,25,10,8,"BE","Bruessel","Villo (cyclocity/JCDecaux)","2026-07-01 04:02:33"
"19","PLACE MORICHAR / MORICHARPLEIN",50.828046,4.347596,20,2,18,"BE","Bruessel","Villo (cyclocity/JCDecaux)","2026-07-01 04:02:33"
"20","PALAIS ROYAL / KONINKLIJK PALEIS",50.843613,4.360628,20,6,13,"BE","Bruessel","Villo (cyclocity/JCDecaux)","2026-07-01 04:02:33"
"21","DE BROUCKERE",50.85223,4.35316,43,19,24,"BE","Bruessel","Villo (cyclocity/JCDecaux)","2026-07-01 04:02:33"
"22","JACQMAIN",50.85587,4.35585,23,12,11,"BE","Bruessel","Villo (cyclocity/JCDecaux)","2026-07-01 04:02:33"
"23","AGORA",50.846331,4.355193,19,8,10,"BE","Bruessel","Villo (cyclocity/JCDecaux)","2026-07-01 04:02:33"
"24","ROGIER",50.855268,4.358717,36,11,23,"BE","Bruessel","Villo (cyclocity/JCDecaux)","2026-07-01 04:02:33"
"25","PORTE D'ANDERLECHT / ANDERLECHTSEPOORT",50.845769,4.338961,25,13,12,"BE","Bruessel","Villo (cyclocity/JCDecaux)","2026-07-01 04:02:33"
"26","VAN LINT",50.839413,4.328914,23,15,7,"BE","Bruessel","Villo (cyclocity/JCDecaux)","2026-07-01 04:02:33"
"27","SQUARE ALBERT I / ALBERT I SQUARE",50.838733,4.32176,25,9,14,"BE","Bruessel","Villo (cyclocity/JCDecaux)","2026-07-01 04:02:33"
"28","CLEMENCEAU",50.842098,4.330422,27,5,21,"BE","Bruessel","Villo (cyclocity/JCDecaux)","2026-07-01 04:02:33"
"30","LAEKEN / LAKEN",50.853666,4.351771,25,13,12,"BE","Bruessel","Villo (cyclocity/JCDecaux)","2026-07-01 04:02:33"
"31","MUSEE DE LA BD / STRIPMUSEUM",50.850303,4.360706,25,10,15,"BE","Bruessel","Villo (cyclocity/JCDecaux)","2026-07-01 04:02:33"
"32","DANSAERT",50.850224,4.346137,35,7,26,"BE","Bruessel","Villo (cyclocity/JCDecaux)","2026-07-01 04:02:33"
"33","MORT SUBITE",50.848701,4.356055,25,10,15,"BE","Bruessel","Villo (cyclocity/JCDecaux)","2026-07-01 04:02:33"
"34","FONTAINAS",50.84563,4.346942,35,0,0,"BE","Bruessel","Villo (cyclocity/JCDecaux)","2026-07-01 04:02:33"
"36","PLACE SAINT-JEAN / SINT-JANSPLEIN",50.845224,4.351484,35,7,27,"BE","Bruessel","Villo (cyclocity/JCDecaux)","2026-07-01 04:02:33"
"37","POELAERT",50.83795,4.353019,25,1,23,"BE","Bruessel","Villo (cyclocity/JCDecaux)","2026-07-01 04:02:33"
"38","JEU DE BALLE / VOSSENPLEIN",50.837912,4.347421,19,7,12,"BE","Bruessel","Villo (cyclocity/JCDecaux)","2026-07-01 04:02:33"
"39","HOTEL DES MONNAIES / MUNTHOTEL",50.834237,4.350732,25,13,12,"BE","Bruessel","Villo (cyclocity/JCDecaux)","2026-07-01 04:02:33"
"40","PORTE DE HAL / HALLEPOORT",50.833931,4.343155,25,12,11,"BE","Bruessel","Villo (cyclocity/JCDecaux)","2026-07-01 04:02:33"
"41","SAINT-ROCH / SINT-ROCHUS",50.859302,4.35485,24,5,17,"BE","Bruessel","Villo (cyclocity/JCDecaux)","2026-07-01 04:02:33"
"42","PORTE DE NINOVE / NINOOFSEPOORT",50.84851,4.338064,25,5,19,"BE","Bruessel","Villo (cyclocity/JCDecaux)","2026-07-01 04:02:33"
"43","JOSEPH II / JOZEF II",50.845256,4.374501,25,14,11,"BE","Bruessel","Villo (cyclocity/JCDecaux)","2026-07-01 04:02:33"
"45","STEPHANIE / STEFANIA",50.83308,4.35743,25,9,14,"BE","Bruessel","Villo (cyclocity/JCDecaux)","2026-07-01 04:02:33"
"46","ALBERTINE / ALBERTINA",50.843892,4.355012,24,10,14,"BE","Bruessel","Villo (cyclocity/JCDecaux)","2026-07-01 04:02:33"
"47","LES QUAIS / KAAIEN",50.854714,4.347151,20,0,20,"BE","Bruessel","Villo (cyclocity/JCDecaux)","2026-07-01 04:02:33"
"48","CONGRES",50.849358,4.363589,23,10,13,"BE","Bruessel","Villo (cyclocity/JCDecaux)","2026-07-01 04:02:33"
"49","WILLEBROECK / WILLEBROEK",50.8615,4.351143,25,14,11,"BE","Bruessel","Villo (cyclocity/JCDecaux)","2026-07-01 04:02:33"
"50","RIBAUCOURT",50.860862,4.339182,25,12,13,"BE","Bruessel","Villo (cyclocity/JCDecaux)","2026-07-01 04:02:33"
"51","MIDI FONSNY / ZUID FONSNY",50.835699,4.338826,25,16,9,"BE","Bruessel","Villo (cyclocity/JCDecaux)","2026-07-01 04:02:33"
"53","GARE DU MIDI / ZUIDSTATION",50.837499,4.335947,40,17,23,"BE","Bruessel","Villo (cyclocity/JCDecaux)","2026-07-01 04:02:33"
"54","TOUR ET TAXIS / THURN & TAXIS",50.863445,4.34635,39,23,16,"BE","Bruessel","Villo (cyclocity/JCDecaux)","2026-07-01 04:02:33"
"55","BOTANIQUE / KRUIDTUIN",50.853248,4.366188,25,15,10,"BE","Bruessel","Villo (cyclocity/JCDecaux)","2026-07-01 04:02:33"
"56","ARCHIMEDE / ARCHIMEDES",50.845817,4.383722,25,9,16,"BE","Bruessel","Villo (cyclocity/JCDecaux)","2026-07-01 04:02:33"
"57","MADOU",50.848712,4.369509,24,4,20,"BE","Bruessel","Villo (cyclocity/JCDecaux)","2026-07-01 04:02:33"
"58","GARE DU NORD / NOORDSTATION",50.859181,4.35942,43,15,26,"BE","Bruessel","Villo (cyclocity/JCDecaux)","2026-07-01 04:02:33"
"59","PLACE ST-JOSSE / ST-JOOSTPLEIN",50.849681,4.375312,24,10,12,"BE","Bruessel","Villo (cyclocity/JCDecaux)","2026-07-01 04:02:33"
"60","SAINT-LAZARE / SINT-LAZARUS",50.857385,4.361858,14,9,5,"BE","Bruessel","Villo (cyclocity/JCDecaux)","2026-07-01 04:02:33"
"61","MAELBEEK / MAALBEEK",50.843836,4.378002,35,12,23,"BE","Bruessel","Villo (cyclocity/JCDecaux)","2026-07-01 04:02:33"
"62","CORTENBERGH / KORTENBERG",50.84177,4.38418,35,1,33,"BE","Bruessel","Villo (cyclocity/JCDecaux)","2026-07-01 04:02:33"
"63","JULES CESAR / JULIUS CAESAR",50.834705,4.421643,20,13,7,"BE","Bruessel","Villo (cyclocity/JCDecaux)","2026-07-01 04:02:33"
"64","VETERINAIRES / VEEARTSEN",50.832749,4.331058,25,13,10,"BE","Bruessel","Villo (cyclocity/JCDecaux)","2026-07-01 04:02:33"
"65","PARVIS DE ST-GILLES / ST-GILLISVOORPLEIN",50.829985,4.344557,25,16,7,"BE","Bruessel","Villo (cyclocity/JCDecaux)","2026-07-01 04:02:33"
"66","SCHUMAN",50.843359,4.379946,40,22,17,"BE","Bruessel","Villo (cyclocity/JCDecaux)","2026-07-01 04:02:33"
"67","PARC CINQUANTENAIRE / JUBELPARK",50.83975,4.385426,35,0,35,"BE","Bruessel","Villo (cyclocity/JCDecaux)","2026-07-01 04:02:33"
"68","JEAN REY",50.840282,4.380131,33,7,24,"BE","Bruessel","Villo (cyclocity/JCDecaux)","2026-07-01 04:02:33"
"69","LESBROUSSART",50.827577,4.363797,29,10,18,"BE","Bruessel","Villo (cyclocity/JCDecaux)","2026-07-01 04:02:33"
"70","AURORE / DAGERAAD",50.818113,4.371446,25,7,18,"BE","Bruessel","Villo (cyclocity/JCDecaux)","2026-07-01 04:02:33"
"71","LEGRAND",50.815019,4.371982,22,13,9,"BE","Bruessel","Villo (cyclocity/JCDecaux)","2026-07-01 04:02:33"
"72","ULB SOLBOSCH / VUB  SOLBOSCH",50.812489,4.379203,24,10,13,"BE","Bruessel","Villo (cyclocity/JCDecaux)","2026-07-01 04:02:33"
"73","VLEURGAT",50.823898,4.367752,25,19,6,"BE","Bruessel","Villo (cyclocity/JCDecaux)","2026-07-01 04:02:33"
"74","PLACE LOIX / LOIXPLEIN",50.831936,4.353037,24,14,9,"BE","Bruessel","Villo (cyclocity/JCDecaux)","2026-07-01 04:02:33"
"75","GENERAL BARON / GENERAAL BARON",50.825888,4.340388,25,15,8,"BE","Bruessel","Villo (cyclocity/JCDecaux)","2026-07-01 04:02:33"
"76","PLACE VAN MEENEN / VAN MEENENPLEIN",50.825749,4.345165,25,7,14,"BE","Bruessel","Villo (cyclocity/JCDecaux)","2026-07-01 04:02:33"
"77","PAUL JANSON",50.827399,4.355281,25,8,17,"BE","Bruessel","Villo (cyclocity/JCDecaux)","2026-07-01 04:02:33"
"78","DUCPETIAUX",50.823699,4.351623,25,13,11,"BE","Bruessel","Villo (cyclocity/JCDecaux)","2026-07-01 04:02:33"
"79","LOI / WET",50.84413,4.374871,22,5,17,"BE","Bruessel","Villo (cyclocity/JCDecaux)","2026-07-01 04:02:33"
"80","CERES",50.814852,4.376794,20,14,5,"BE","Bruessel","Villo (cyclocity/JCDecaux)","2026-07-01 04:02:33"
"81","PONT BOCKSTAEL / BRUG BOCKSTAEL",50.870259,4.343195,25,10,15,"BE","Bruessel","Villo (cyclocity/JCDecaux)","2026-07-01 04:02:33"
"83","SIMONIS",50.86284,4.33126,29,13,11,"BE","Bruessel","Villo (cyclocity/JCDecaux)","2026-07-01 04:02:33"
"84","SAINTE-ANNE / SINT-ANNA",50.85896,4.330107,20,13,7,"BE","Bruessel","Villo (cyclocity/JCDecaux)","2026-07-01 04:02:33"
"85","ETANGS NOIRS / ZWARTE VIJVERS",50.857266,4.332368,25,5,15,"BE","Bruessel","Villo (cyclocity/JCDecaux)","2026-07-01 04:02:33"
"86","MAISON COMMUNALE JETTE / GEMEENTEHUIS JETTE",50.876195,4.324477,25,18,6,"BE","Bruessel","Villo (cyclocity/JCDecaux)","2026-07-01 04:02:33"
"87","MIROIR / SPIEGEL",50.871391,4.323914,25,18,7,"BE","Bruessel","Villo (cyclocity/JCDecaux)","2026-07-01 04:02:33"
"88","WOESTE",50.873354,4.334311,25,14,11,"BE","Bruessel","Villo (cyclocity/JCDecaux)","2026-07-01 04:02:33"
"89","ATHENEE DE JETTE / ATHENEUM VAN JETTE",50.87106,4.32985,25,17,8,"BE","Bruessel","Villo (cyclocity/JCDecaux)","2026-07-01 04:02:33"
"90","BROUSTIN",50.867448,4.326807,17,7,10,"BE","Bruessel","Villo (cyclocity/JCDecaux)","2026-07-01 04:02:33"
"91","BELGICA",50.867773,4.335217,25,11,14,"BE","Bruessel","Villo (cyclocity/JCDecaux)","2026-07-01 04:02:33"
"92","LENOIR",50.875826,4.329921,24,10,14,"BE","Bruessel","Villo (cyclocity/JCDecaux)","2026-07-01 04:02:33"
"93","CLOVIS",50.850333,4.380461,19,14,5,"BE","Bruessel","Villo (cyclocity/JCDecaux)","2026-07-01 04:02:33"
"94","DUCHESSE DE BRABANT / HERTOGIN VAN BRABANT",50.849215,4.329184,20,8,10,"BE","Bruessel","Villo (cyclocity/JCDecaux)","2026-07-01 04:02:33"
"95","PLACE BOCKSTAEL / BOCKSTAELPLAATS",50.87808,4.34793,25,9,15,"BE","Bruessel","Villo (cyclocity/JCDecaux)","2026-07-01 04:02:33"
"96","HOTEL PRESIDENT / PRESIDENT HOTEL",50.863875,4.358708,25,13,11,"BE","Bruessel","Villo (cyclocity/JCDecaux)","2026-07-01 04:02:33"
"97","KARREVELD",50.858058,4.318689,25,16,6,"BE","Bruessel","Villo (cyclocity/JCDecaux)","2026-07-01 04:02:33"
"98","CIMETIERE / KERKHOF",50.85904,4.312402,20,9,10,"BE","Bruessel","Villo (cyclocity/JCDecaux)","2026-07-01 04:02:33"
"99","JUBILE / JUBELFEEST",50.864992,4.338431,25,16,9,"BE","Bruessel","Villo (cyclocity/JCDecaux)","2026-07-01 04:02:33"
"100","LUXEMBOURG / LUXEMBURG",50.838411,4.37302,44,10,33,"BE","Bruessel","Villo (cyclocity/JCDecaux)","2026-07-01 04:02:33"
"101","ZELLIK",50.869204,4.291663,25,17,8,"BE","Bruessel","Villo (cyclocity/JCDecaux)","2026-07-01 04:02:33"
"102","MUSEUM",50.83579,4.375782,25,8,17,"BE","Bruessel","Villo (cyclocity/JCDecaux)","2026-07-01 04:02:33"
"103","ERNEST SOLVAY",50.83479,4.363772,20,18,2,"BE","Bruessel","Villo (cyclocity/JCDecaux)","2026-07-01 04:02:33"
"105","DE HENNIN",50.830077,4.369545,20,7,9,"BE","Bruessel","Villo (cyclocity/JCDecaux)","2026-07-01 04:02:33"
"106","GERMOIR / MOUTERIJ",50.830012,4.378625,25,8,17,"BE","Bruessel","Villo (cyclocity/JCDecaux)","2026-07-01 04:02:33"
"107","DEFACQZ",50.827652,4.359031,25,8,15,"BE","Bruessel","Villo (cyclocity/JCDecaux)","2026-07-01 04:02:33"
"108","FLAGEY",50.828012,4.371756,35,18,14,"BE","Bruessel","Villo (cyclocity/JCDecaux)","2026-07-01 04:02:33"
"109","CHATELAIN / KASTELEIN",50.824048,4.359896,18,13,5,"BE","Bruessel","Villo (cyclocity/JCDecaux)","2026-07-01 04:02:33"
"110","RODIN",50.826992,4.382379,22,10,12,"BE","Bruessel","Villo (cyclocity/JCDecaux)","2026-07-01 04:02:33"
"111","ETANGS MELLAERTS / MELLAERTS VIJVERS",50.827831,4.431822,25,13,11,"BE","Bruessel","Villo (cyclocity/JCDecaux)","2026-07-01 04:02:33"
"112","PAGE / EDELKNAAP",50.821567,4.356508,18,9,3,"BE","Bruessel","Villo (cyclocity/JCDecaux)","2026-07-01 04:02:33"
"113","ABBAYE DE LA CAMBRE / ABDIJ TER KAMEREN",50.820042,4.374785,20,11,7,"BE","Bruessel","Villo (cyclocity/JCDecaux)","2026-07-01 04:02:33"
"114","SAISONS / JAARGETIJDEN",50.820391,4.385358,25,8,16,"BE","Bruessel","Villo (cyclocity/JCDecaux)","2026-07-01 04:02:33"
"115","PETITE SUISSE / KLEIN-ZWITSERLAND",50.817807,4.38547,24,8,14,"BE","Bruessel","Villo (cyclocity/JCDecaux)","2026-07-01 04:02:33"
"116","ULB PLAINE",50.818253,4.395749,25,13,12,"BE","Bruessel","Villo (cyclocity/JCDecaux)","2026-07-01 04:02:33"
"117","CIMETIERE D'IXELLES/BEGRAAFPLAATS VAN ELSENE",50.816029,4.391006,34,26,6,"BE","Bruessel","Villo (cyclocity/JCDecaux)","2026-07-01 04:02:33"
"118","SCHWEITZER",50.864622,4.297878,25,18,7,"BE","Bruessel","Villo (cyclocity/JCDecaux)","2026-07-01 04:02:33"
"119","PAQUOT",50.82559,4.379555,20,5,15,"BE","Bruessel","Villo (cyclocity/JCDecaux)","2026-07-01 04:02:33"
"120","BLYCKAERTS",50.832872,4.37483,25,1,24,"BE","Bruessel","Villo (cyclocity/JCDecaux)","2026-07-01 04:02:33"
"121","ETANGS / VIJVERS",50.823986,4.37379,25,8,14,"BE","Bruessel","Villo (cyclocity/JCDecaux)","2026-07-01 04:02:33"
"122","ETTERBEEK GARE / ETTERBEEK STATION",50.822207,4.389325,30,11,18,"BE","Bruessel","Villo (cyclocity/JCDecaux)","2026-07-01 04:02:33"
"123","BASCULE",50.817507,4.366498,25,7,16,"BE","Bruessel","Villo (cyclocity/JCDecaux)","2026-07-01 04:02:33"
"124","CHARLES GRAUX",50.818283,4.363568,25,11,13,"BE","Bruessel","Villo (cyclocity/JCDecaux)","2026-07-01 04:02:33"
"125","GEORGES BRUGMANN",50.817392,4.354105,25,9,16,"BE","Bruessel","Villo (cyclocity/JCDecaux)","2026-07-01 04:02:33"
"126","FABRY",50.837288,4.43462,25,10,14,"BE","Bruessel","Villo (cyclocity/JCDecaux)","2026-07-01 04:02:33"
"127","GRAY",50.832194,4.377694,18,8,9,"BE","Bruessel","Villo (cyclocity/JCDecaux)","2026-07-01 04:02:33"
"128","MUSEE DU TRAM / TRAMMUSEUM",50.832355,4.432358,25,10,15,"BE","Bruessel","Villo (cyclocity/JCDecaux)","2026-07-01 04:02:33"
"130","ROND-POINT DU SOUVERAIN / VORSTRONDPUNT",50.819448,4.429082,23,12,11,"BE","Bruessel","Villo (cyclocity/JCDecaux)","2026-07-01 04:02:33"
"131","JARDIN MASSART / MASSARTTUIN",50.81329,4.434751,25,15,10,"BE","Bruessel","Villo (cyclocity/JCDecaux)","2026-07-01 04:02:33"
"132","DEUX CHAUSSEES / TWEESTEENWEGEN",50.816338,4.433895,19,7,12,"BE","Bruessel","Villo (cyclocity/JCDecaux)","2026-07-01 04:02:33"
"133","CHÂTEAU / KASTEEL",50.866795,4.309222,24,12,11,"BE","Bruessel","Villo (cyclocity/JCDecaux)","2026-07-01 04:02:33"
"134","BASTOGNE / BASTENAKEN",50.862652,4.316644,25,13,12,"BE","Bruessel","Villo (cyclocity/JCDecaux)","2026-07-01 04:02:33"
"135","PARC LACROIX / LACROIX PARK",50.872343,4.37646,25,14,10,"BE","Bruessel","Villo (cyclocity/JCDecaux)","2026-07-01 04:02:33"
"136","PAVILLON / PAVILJOEN",50.869809,4.371808,24,9,13,"BE","Bruessel","Villo (cyclocity/JCDecaux)","2026-07-01 04:02:33"
"137","MAISON COMM SCHAERBEEK/GEMEENTEH. SCHAARBEEK",50.86661,4.373102,25,12,13,"BE","Bruessel","Villo (cyclocity/JCDecaux)","2026-07-01 04:02:33"
"138","HOUFFALIZE",50.86511,4.378466,20,6,12,"BE","Bruessel","Villo (cyclocity/JCDecaux)","2026-07-01 04:02:33"
"139","LIEDTS",50.863872,4.366741,25,13,11,"BE","Bruessel","Villo (cyclocity/JCDecaux)","2026-07-01 04:02:33"
"140","AZALEES / AZALEA",50.862704,4.381289,25,12,12,"BE","Bruessel","Villo (cyclocity/JCDecaux)","2026-07-01 04:02:33"
"141","GARE DU NORD / NOORDSTATION",50.860754,4.358886,42,14,28,"BE","Bruessel","Villo (cyclocity/JCDecaux)","2026-07-01 04:02:33"
"142","BIENFAITEURS / WELDOENERS",50.857319,4.386724,24,14,9,"BE","Bruessel","Villo (cyclocity/JCDecaux)","2026-07-01 04:02:33"
"143","RTL",50.857218,4.407879,25,11,13,"BE","Bruessel","Villo (cyclocity/JCDecaux)","2026-07-01 04:02:33"
"144","SAINTE-MARIE / SINTE-MARIA",50.85778,4.368144,25,15,10,"BE","Bruessel","Villo (cyclocity/JCDecaux)","2026-07-01 04:02:33"
"145","COTEAUX / WIJNHEUVELEN",50.859096,4.379117,25,15,9,"BE","Bruessel","Villo (cyclocity/JCDecaux)","2026-07-01 04:02:33"
"146","LEOPOLD III",50.859243,4.401022,25,17,7,"BE","Bruessel","Villo (cyclocity/JCDecaux)","2026-07-01 04:02:33"
"147","LYCEE EMILE MAX / EMILE MAX LYCEUM",50.861874,4.372146,25,15,10,"BE","Bruessel","Villo (cyclocity/JCDecaux)","2026-07-01 04:02:33"
"148","GARE DE MEISER / MEISER STATION",50.855629,4.394807,22,12,9,"BE","Bruessel","Villo (cyclocity/JCDecaux)","2026-07-01 04:02:33"
"149","JULES LEBRUN",50.856208,4.403386,25,10,15,"BE","Bruessel","Villo (cyclocity/JCDecaux)","2026-07-01 04:02:33"
"150","MEISER",50.854654,4.398451,25,17,8,"BE","Bruessel","Villo (cyclocity/JCDecaux)","2026-07-01 04:02:33"
"151","LOUVAIN 494 / LEUVEN 494",50.853518,4.392491,25,17,8,"BE","Bruessel","Villo (cyclocity/JCDecaux)","2026-07-01 04:02:33"
"152","PLACE DAILLY / DAILLYPLEIN",50.852389,4.387373,25,15,10,"BE","Bruessel","Villo (cyclocity/JCDecaux)","2026-07-01 04:02:33"
"153","SQUARE ARMAND STEURS / ARMAND STEURSSQUARE",50.854128,4.378002,25,18,7,"BE","Bruessel","Villo (cyclocity/JCDecaux)","2026-07-01 04:02:33"
"154","PLASKY",50.851241,4.396386,25,10,15,"BE","Bruessel","Villo (cyclocity/JCDecaux)","2026-07-01 04:02:33"
"155","LES MARRONNIERS",50.824953,4.399088,25,10,13,"BE","Bruessel","Villo (cyclocity/JCDecaux)","2026-07-01 04:02:33"
"156","JAMBLINNE DE MEUX",50.847158,4.393255,25,14,11,"BE","Bruessel","Villo (cyclocity/JCDecaux)","2026-07-01 04:02:33"
"157","HELIOTROPES / HELIOTROPEN",50.863388,4.386222,25,8,17,"BE","Bruessel","Villo (cyclocity/JCDecaux)","2026-07-01 04:02:33"
"158","VAN YSENDYCK",50.867955,4.379577,24,12,12,"BE","Bruessel","Villo (cyclocity/JCDecaux)","2026-07-01 04:02:33"
"159","MASUI",50.869297,4.36257,25,13,11,"BE","Bruessel","Villo (cyclocity/JCDecaux)","2026-07-01 04:02:33"
"160","ELISA",50.877501,4.380315,23,12,11,"BE","Bruessel","Villo (cyclocity/JCDecaux)","2026-07-01 04:02:33"
"161","DEMOLDER",50.872592,4.379886,25,12,11,"BE","Bruessel","Villo (cyclocity/JCDecaux)","2026-07-01 04:02:33"
"163","CHAZAL",50.859112,4.39157,25,15,10,"BE","Bruessel","Villo (cyclocity/JCDecaux)","2026-07-01 04:02:33"
"165","CIMETIERE DE JETTE / KERKHOF VAN JETTE",50.879668,4.33425,20,9,10,"BE","Bruessel","Villo (cyclocity/JCDecaux)","2026-07-01 04:02:33"
"166","GC ESSEGEM",50.876205,4.337137,25,18,7,"BE","Bruessel","Villo (cyclocity/JCDecaux)","2026-07-01 04:02:33"
"167","CHARLES V / KAREL V",50.869032,4.309731,22,10,12,"BE","Bruessel","Villo (cyclocity/JCDecaux)","2026-07-01 04:02:33"
"168","HOPITAL FRANÇAIS / FRANS GASTHUIS",50.866379,4.303281,25,18,7,"BE","Bruessel","Villo (cyclocity/JCDecaux)","2026-07-01 04:02:33"
"169","GEORGES EEKHOUD",50.877125,4.387515,25,11,14,"BE","Bruessel","Villo (cyclocity/JCDecaux)","2026-07-01 04:02:33"
"170","RIGA",50.87453,4.385378,20,11,7,"BE","Bruessel","Villo (cyclocity/JCDecaux)","2026-07-01 04:02:33"
"171","PISCINE LOUIS NAMECHE/ZWEMBAD LOUIS NAMECHE",50.854789,4.312201,25,14,11,"BE","Bruessel","Villo (cyclocity/JCDecaux)","2026-07-01 04:02:33"
"172","AEROPOLIS",50.869764,4.388191,25,15,10,"BE","Bruessel","Villo (cyclocity/JCDecaux)","2026-07-01 04:02:33"
"173","BICHON",50.864656,4.394448,24,14,10,"BE","Bruessel","Villo (cyclocity/JCDecaux)","2026-07-01 04:02:33"
"174","MENNEKENS",50.853947,4.31635,22,16,6,"BE","Bruessel","Villo (cyclocity/JCDecaux)","2026-07-01 04:02:33"
"175","BEEKKANT",50.854166,4.322948,25,13,12,"BE","Bruessel","Villo (cyclocity/JCDecaux)","2026-07-01 04:02:33"
"176","COLONEL BOURG / KOLONEL BOURG",50.852356,4.408635,25,10,15,"BE","Bruessel","Villo (cyclocity/JCDecaux)","2026-07-01 04:02:33"
"177","CHASSEURS ARDENNAIS / ARDENSE JAGERS",50.849409,4.389263,25,11,13,"BE","Bruessel","Villo (cyclocity/JCDecaux)","2026-07-01 04:02:33"
"178","DIAMANT",50.85043,4.402169,22,13,5,"BE","Bruessel","Villo (cyclocity/JCDecaux)","2026-07-01 04:02:33"
"179","CELTES / KELTEN",50.839217,4.398015,44,27,12,"BE","Bruessel","Villo (cyclocity/JCDecaux)","2026-07-01 04:02:33"
"180","JOURDAN",50.837726,4.381565,25,4,20,"BE","Bruessel","Villo (cyclocity/JCDecaux)","2026-07-01 04:02:33"
"181","LOUIS TITZ",50.835723,4.394395,25,6,18,"BE","Bruessel","Villo (cyclocity/JCDecaux)","2026-07-01 04:02:33"
"182","BOILEAU",50.83168,4.404769,25,12,13,"BE","Bruessel","Villo (cyclocity/JCDecaux)","2026-07-01 04:02:33"
"183","LA CHASSE / JACHT",50.829928,4.390357,25,12,11,"BE","Bruessel","Villo (cyclocity/JCDecaux)","2026-07-01 04:02:33"
"184","PHILIPPE BAUCQ",50.831592,4.385786,25,14,11,"BE","Bruessel","Villo (cyclocity/JCDecaux)","2026-07-01 04:02:33"
"185","PERE DE DEKEN / PATER DE DEKEN",50.835797,4.401599,25,17,6,"BE","Bruessel","Villo (cyclocity/JCDecaux)","2026-07-01 04:02:33"
"186","GENOT",50.861783,4.302607,17,9,8,"BE","Bruessel","Villo (cyclocity/JCDecaux)","2026-07-01 04:02:33"
"187","ARSENAL / ARSENAAL",50.826603,4.397117,25,14,10,"BE","Bruessel","Villo (cyclocity/JCDecaux)","2026-07-01 04:02:33"
"188","OSSEGHEM",50.857235,4.324354,24,15,9,"BE","Bruessel","Villo (cyclocity/JCDecaux)","2026-07-01 04:02:33"
"189","PLACE VAN MEYEL / VAN MEYELPLEIN",50.836924,4.389073,17,7,10,"BE","Bruessel","Villo (cyclocity/JCDecaux)","2026-07-01 04:02:33"
"190","TERDELT",50.867904,4.390696,22,13,9,"BE","Bruessel","Villo (cyclocity/JCDecaux)","2026-07-01 04:02:33"
"191","ARTAN",50.853973,4.38374,24,15,9,"BE","Bruessel","Villo (cyclocity/JCDecaux)","2026-07-01 04:02:33"
"192","AUBERGE DE JEUNESSE / JEUGDHERBERG",50.851562,4.332924,25,12,12,"BE","Bruessel","Villo (cyclocity/JCDecaux)","2026-07-01 04:02:33"
"193","GARE DE L'OUEST / WESTSTATION",50.848866,4.320628,30,7,21,"BE","Bruessel","Villo (cyclocity/JCDecaux)","2026-07-01 04:02:33"
"194","STUYVENBERG",50.885885,4.342003,25,17,8,"BE","Bruessel","Villo (cyclocity/JCDecaux)","2026-07-01 04:02:33"
"195","WESTLAND SHOPPING",50.838356,4.284213,26,15,11,"BE","Bruessel","Villo (cyclocity/JCDecaux)","2026-07-01 04:02:33"
"196","PRINCE DE LIEGE / PRINS VAN LUIK",50.846874,4.29817,25,7,18,"BE","Bruessel","Villo (cyclocity/JCDecaux)","2026-07-01 04:02:33"
"197","DE SMET",50.848255,4.314854,25,11,13,"BE","Bruessel","Villo (cyclocity/JCDecaux)","2026-07-01 04:02:33"
"199","HENRI REY",50.843693,4.304986,15,8,7,"BE","Bruessel","Villo (cyclocity/JCDecaux)","2026-07-01 04:02:33"
"200","VETERANS COLONIAUX / KOLONIALE VETERANEN",50.844006,4.313818,25,12,11,"BE","Bruessel","Villo (cyclocity/JCDecaux)","2026-07-01 04:02:33"
"201","PETERBOS",50.8414,4.296013,25,18,6,"BE","Bruessel","Villo (cyclocity/JCDecaux)","2026-07-01 04:02:33"
"202","AUMALE",50.840217,4.313386,21,9,12,"BE","Bruessel","Villo (cyclocity/JCDecaux)","2026-07-01 04:02:33"
"203","DEMOSTHENE",50.84045,4.305055,15,7,8,"BE","Bruessel","Villo (cyclocity/JCDecaux)","2026-07-01 04:02:33"
"205","DE LINDE",50.835503,4.299573,20,7,12,"BE","Bruessel","Villo (cyclocity/JCDecaux)","2026-07-01 04:02:33"
"206","SAINT-GUIDON / SINT-GUIDO",50.834929,4.305659,25,16,8,"BE","Bruessel","Villo (cyclocity/JCDecaux)","2026-07-01 04:02:33"
"207","BIESTEBROECK / BIESTEBROEK",50.83362,4.313592,25,15,8,"BE","Bruessel","Villo (cyclocity/JCDecaux)","2026-07-01 04:02:33"
"208","MELBA",50.832565,4.294311,25,6,19,"BE","Bruessel","Villo (cyclocity/JCDecaux)","2026-07-01 04:02:33"
"209","VEEWEYDE / VEEWEIDE",50.828602,4.299621,25,18,5,"BE","Bruessel","Villo (cyclocity/JCDecaux)","2026-07-01 04:02:33"
"210","MARIUS RENARD",50.827873,4.288707,25,15,10,"BE","Bruessel","Villo (cyclocity/JCDecaux)","2026-07-01 04:02:33"
"211","METRO CERIA / METRO COOVI",50.816704,4.290857,22,6,15,"BE","Bruessel","Villo (cyclocity/JCDecaux)","2026-07-01 04:02:33"
"212","THEO LAMBERT",50.82701,4.292098,25,12,12,"BE","Bruessel","Villo (cyclocity/JCDecaux)","2026-07-01 04:02:33"
"213","LA ROUE / HET RAD",50.821018,4.293865,15,5,10,"BE","Bruessel","Villo (cyclocity/JCDecaux)","2026-07-01 04:02:33"
"214","CAMPUS CERIA / CAMPUS COOVI",50.815942,4.295095,30,8,18,"BE","Bruessel","Villo (cyclocity/JCDecaux)","2026-07-01 04:02:33"
"216","ARISTIDE BRIAND",50.828873,4.303918,25,9,16,"BE","Bruessel","Villo (cyclocity/JCDecaux)","2026-07-01 04:02:33"
"217","BIZET",50.82496,4.297422,23,12,11,"BE","Bruessel","Villo (cyclocity/JCDecaux)","2026-07-01 04:02:33"
"218","DELACROIX",50.845978,4.323226,25,14,10,"BE","Bruessel","Villo (cyclocity/JCDecaux)","2026-07-01 04:02:33"
"219","VAN HELLEMONT",50.829491,4.286006,23,11,12,"BE","Bruessel","Villo (cyclocity/JCDecaux)","2026-07-01 04:02:33"
"220","LUTHER KING",50.824867,4.287059,25,17,8,"BE","Bruessel","Villo (cyclocity/JCDecaux)","2026-07-01 04:02:33"
"221","CURIE",50.821793,4.284648,25,12,13,"BE","Bruessel","Villo (cyclocity/JCDecaux)","2026-07-01 04:02:33"
"222","MERCKX",50.817246,4.280445,25,11,13,"BE","Bruessel","Villo (cyclocity/JCDecaux)","2026-07-01 04:02:33"
"223","WIELS",50.824055,4.326376,12,0,0,"BE","Bruessel","Villo (cyclocity/JCDecaux)","2026-07-01 04:02:33"
"224","ROCHEFORT",50.824379,4.334202,25,8,17,"BE","Bruessel","Villo (cyclocity/JCDecaux)","2026-07-01 04:02:33"
"225","",50.846755,4.352001,0,0,0,"BE","Bruessel","Villo (cyclocity/JCDecaux)","2026-07-01 04:02:33"
"226","UNION / UNIE",50.819892,4.325187,25,16,9,"BE","Bruessel","Villo (cyclocity/JCDecaux)","2026-07-01 04:02:33"
"227","PATINAGE / SCHAATSEN",50.816695,4.319891,20,7,13,"BE","Bruessel","Villo (cyclocity/JCDecaux)","2026-07-01 04:02:33"
"228","ALTITUDE CENT / HOOGTE HONDERD",50.816525,4.336212,25,5,17,"BE","Bruessel","Villo (cyclocity/JCDecaux)","2026-07-01 04:02:33"
"229","ZAMAN-FOREST NAT. / ZAMAN-VORST NAT.",50.813708,4.324706,18,6,12,"BE","Bruessel","Villo (cyclocity/JCDecaux)","2026-07-01 04:02:33"
"230","BERKENDAEL / BERKENDAAL",50.818382,4.346061,24,13,8,"BE","Bruessel","Villo (cyclocity/JCDecaux)","2026-07-01 04:02:33"
"231","KERSBEEK",50.805801,4.3194,19,9,8,"BE","Bruessel","Villo (cyclocity/JCDecaux)","2026-07-01 04:02:33"
"232","DOMAINE / DOMEIN",50.810875,4.329158,25,6,19,"BE","Bruessel","Villo (cyclocity/JCDecaux)","2026-07-01 04:02:33"
"233","PARC DUDEN / DUDENPARK",50.813938,4.330966,20,8,11,"BE","Bruessel","Villo (cyclocity/JCDecaux)","2026-07-01 04:02:33"
"235","FOREST NATIONAL / VORST NATIONAAL",50.810085,4.324864,25,14,11,"BE","Bruessel","Villo (cyclocity/JCDecaux)","2026-07-01 04:02:33"
"236","MAISON COMMUNALE FOREST / GEMEENTEHUIS VORST",50.812482,4.31887,25,5,14,"BE","Bruessel","Villo (cyclocity/JCDecaux)","2026-07-01 04:02:33"
"237","PARVIS ST-ANTOINE / ST-ANTONIUSVOORPLEIN",50.827999,4.330638,25,10,10,"BE","Bruessel","Villo (cyclocity/JCDecaux)","2026-07-01 04:02:33"
"238","UNION SAINT-GILLOISE / UNION SINT-GILLIS",50.820199,4.330806,20,7,13,"BE","Bruessel","Villo (cyclocity/JCDecaux)","2026-07-01 04:02:33"
"239","DARWIN",50.817777,4.350406,25,10,14,"BE","Bruessel","Villo (cyclocity/JCDecaux)","2026-07-01 04:02:33"
"240","VANDERKINDERE",50.81418,4.347721,23,16,6,"BE","Bruessel","Villo (cyclocity/JCDecaux)","2026-07-01 04:02:33"
"241","STATUAIRES / BEELDHOUWERS",50.804006,4.349493,25,7,17,"BE","Bruessel","Villo (cyclocity/JCDecaux)","2026-07-01 04:02:33"
"242","MAISON COMMUNALE UCCLE / GEMEENTEHUIS UKKEL",50.803791,4.333321,25,9,15,"BE","Bruessel","Villo (cyclocity/JCDecaux)","2026-07-01 04:02:33"
"243","ROND-POINT CHURCHILL / CHURCHILLPLEIN",50.811696,4.353263,25,17,6,"BE","Bruessel","Villo (cyclocity/JCDecaux)","2026-07-01 04:02:33"
"244","BOIS DE LA CAMBRE / TERKAMERENBOS",50.81218,4.368321,20,5,14,"BE","Bruessel","Villo (cyclocity/JCDecaux)","2026-07-01 04:02:33"
"245","HAMOIR",50.798988,4.375581,25,14,11,"BE","Bruessel","Villo (cyclocity/JCDecaux)","2026-07-01 04:02:33"
"246","GATTI DE GAMOND",50.796471,4.328415,20,7,12,"BE","Bruessel","Villo (cyclocity/JCDecaux)","2026-07-01 04:02:33"
"247","STALLE",50.79586,4.32058,25,14,11,"BE","Bruessel","Villo (cyclocity/JCDecaux)","2026-07-01 04:02:33"
"248","PRINCE DE LIGNE / PRINS DE LIGNE",50.795777,4.373405,22,14,7,"BE","Bruessel","Villo (cyclocity/JCDecaux)","2026-07-01 04:02:33"
"249","SAINT-JOB / SINT-JOB",50.794173,4.366414,25,13,11,"BE","Bruessel","Villo (cyclocity/JCDecaux)","2026-07-01 04:02:33"
"250","SAINTE-ELISABETH / SINT-ELISABETH",50.805409,4.371953,25,15,8,"BE","Bruessel","Villo (cyclocity/JCDecaux)","2026-07-01 04:02:33"
"251","PAOLA",50.800377,4.326985,20,6,6,"BE","Bruessel","Villo (cyclocity/JCDecaux)","2026-07-01 04:02:33"
"252","BEMPT",50.803413,4.314756,23,16,6,"BE","Bruessel","Villo (cyclocity/JCDecaux)","2026-07-01 04:02:33"
"253","REINE FABIOLA / KONINGIN FABIOLA",50.872676,4.314497,25,18,7,"BE","Bruessel","Villo (cyclocity/JCDecaux)","2026-07-01 04:02:33"
"254","BASILIQUE / BASILIEK",50.867393,4.320344,22,14,8,"BE","Bruessel","Villo (cyclocity/JCDecaux)","2026-07-01 04:02:33"
"255","SACRE-COEUR DE GANSHOREN",50.868038,4.314122,25,18,7,"BE","Bruessel","Villo (cyclocity/JCDecaux)","2026-07-01 04:02:33"
"256","VAN OVERBEKE",50.874767,4.308977,24,16,7,"BE","Bruessel","Villo (cyclocity/JCDecaux)","2026-07-01 04:02:33"
"257","MARGUERITE D'AUTR. / MARGARETHA VAN OOSTENR.",50.872249,4.298174,25,16,9,"BE","Bruessel","Villo (cyclocity/JCDecaux)","2026-07-01 04:02:33"
"258","LIBERTE / VRIJHEID",50.862199,4.323446,18,10,8,"BE","Bruessel","Villo (cyclocity/JCDecaux)","2026-07-01 04:02:33"
"259","NOVILLE",50.859608,4.33409,20,14,6,"BE","Bruessel","Villo (cyclocity/JCDecaux)","2026-07-01 04:02:33"
"260","TRITON",50.86702,4.406995,25,10,15,"BE","Bruessel","Villo (cyclocity/JCDecaux)","2026-07-01 04:02:33"
"261","CONSCIENCE",50.86879,4.399587,20,9,6,"BE","Bruessel","Villo (cyclocity/JCDecaux)","2026-07-01 04:02:33"
"262","PLACE DE LA PAIX / VREDEPLEIN",50.87693,4.400722,20,10,10,"BE","Bruessel","Villo (cyclocity/JCDecaux)","2026-07-01 04:02:33"
"263","MAISON COMMUNALE EVERE / GEMEENTEHUIS EVERE",50.871919,4.403183,19,10,9,"BE","Bruessel","Villo (cyclocity/JCDecaux)","2026-07-01 04:02:33"
"264","NOTRE-DAME / ONZE-LIEVE-VROUW",50.871013,4.397616,20,13,7,"BE","Bruessel","Villo (cyclocity/JCDecaux)","2026-07-01 04:02:33"
"265","EVERE SHOPPING",50.867241,4.40287,25,9,15,"BE","Bruessel","Villo (cyclocity/JCDecaux)","2026-07-01 04:02:33"
"266","GARE DE BORDET / BORDET STATION",50.877476,4.409133,21,14,7,"BE","Bruessel","Villo (cyclocity/JCDecaux)","2026-07-01 04:02:33"
"267","GENEVE",50.862912,4.403226,25,14,10,"BE","Bruessel","Villo (cyclocity/JCDecaux)","2026-07-01 04:02:33"
"268","DUNANT",50.862808,4.410791,20,13,4,"BE","Bruessel","Villo (cyclocity/JCDecaux)","2026-07-01 04:02:33"
"269","CICERON / CICERO",50.860957,4.421515,25,12,13,"BE","Bruessel","Villo (cyclocity/JCDecaux)","2026-07-01 04:02:33"
"270","DE PADUWA",50.859215,4.414115,25,9,16,"BE","Bruessel","Villo (cyclocity/JCDecaux)","2026-07-01 04:02:33"
"271","DUBOIS",50.851158,4.309591,25,12,13,"BE","Bruessel","Villo (cyclocity/JCDecaux)","2026-07-01 04:02:33"
"272","SCHEUTBOS",50.851129,4.299792,24,15,8,"BE","Bruessel","Villo (cyclocity/JCDecaux)","2026-07-01 04:02:33"
"273","TAMARIS / TAMARISKEN",50.854809,4.306337,25,8,17,"BE","Bruessel","Villo (cyclocity/JCDecaux)","2026-07-01 04:02:33"
"274","CORHAY",50.860027,4.307686,25,10,15,"BE","Bruessel","Villo (cyclocity/JCDecaux)","2026-07-01 04:02:33"
"275","VERSAILLES",50.896278,4.372427,20,10,10,"BE","Bruessel","Villo (cyclocity/JCDecaux)","2026-07-01 04:02:33"
"276","CROIX DE GUERRE / OORLOGSKRUISEN",50.889521,4.380226,25,14,11,"BE","Bruessel","Villo (cyclocity/JCDecaux)","2026-07-01 04:02:33"
"277","VAN PRAET",50.881588,4.373817,21,11,10,"BE","Bruessel","Villo (cyclocity/JCDecaux)","2026-07-01 04:02:33"
"278","STADE / STADION",50.893923,4.332117,25,7,18,"BE","Bruessel","Villo (cyclocity/JCDecaux)","2026-07-01 04:02:33"
"279","HOUBA-BRUGMANN",50.890231,4.336993,25,15,9,"BE","Bruessel","Villo (cyclocity/JCDecaux)","2026-07-01 04:02:33"
"280","HEYSEL / HEIZEL",50.897522,4.334831,25,13,12,"BE","Bruessel","Villo (cyclocity/JCDecaux)","2026-07-01 04:02:33"
"281","ATOMIUM",50.895485,4.341311,25,14,10,"BE","Bruessel","Villo (cyclocity/JCDecaux)","2026-07-01 04:02:33"
"282","CENTENAIRE / EEUWFEEST",50.89097,4.344827,25,5,20,"BE","Bruessel","Villo (cyclocity/JCDecaux)","2026-07-01 04:02:33"
"283","PISCINE / ZWEMBAD",50.893166,4.376996,14,7,7,"BE","Bruessel","Villo (cyclocity/JCDecaux)","2026-07-01 04:02:33"
"284","CLAESSENS",50.873085,4.35859,25,9,15,"BE","Bruessel","Villo (cyclocity/JCDecaux)","2026-07-01 04:02:33"
"285","COGHEN",50.813469,4.338951,25,9,16,"BE","Bruessel","Villo (cyclocity/JCDecaux)","2026-07-01 04:02:33"
"286","BENS",50.8081,4.336816,18,7,11,"BE","Bruessel","Villo (cyclocity/JCDecaux)","2026-07-01 04:02:33"
"287","FLOREAL",50.809334,4.345243,23,15,6,"BE","Bruessel","Villo (cyclocity/JCDecaux)","2026-07-01 04:02:33"
"288","HOUZEAU",50.80351,4.3589,18,8,9,"BE","Bruessel","Villo (cyclocity/JCDecaux)","2026-07-01 04:02:33"
"289","SQUARE GEORGES MARLOW / GEORGES MARLOWSQUARE",50.801818,4.340812,25,7,18,"BE","Bruessel","Villo (cyclocity/JCDecaux)","2026-07-01 04:02:33"
"290","GARE DE CALEVOET / KALEVOET STATION",50.791568,4.332586,24,15,8,"BE","Bruessel","Villo (cyclocity/JCDecaux)","2026-07-01 04:02:33"
"291","DECROLY",50.804661,4.327886,19,6,13,"BE","Bruessel","Villo (cyclocity/JCDecaux)","2026-07-01 04:02:33"
"292","RITTWEGER",50.797739,4.336083,20,13,7,"BE","Bruessel","Villo (cyclocity/JCDecaux)","2026-07-01 04:02:33"
"293","KEYM",50.810528,4.40231,25,5,19,"BE","Bruessel","Villo (cyclocity/JCDecaux)","2026-07-01 04:02:33"
"294","WIENER",50.798344,4.419014,25,7,18,"BE","Bruessel","Villo (cyclocity/JCDecaux)","2026-07-01 04:02:33"
"295","COIN DU BALAI / BEZEMHOEK",50.793682,4.418497,25,8,15,"BE","Bruessel","Villo (cyclocity/JCDecaux)","2026-07-01 04:02:33"
"296","BOITSFORT GARE / BOSVOORDE STATION",50.795209,4.408152,25,2,22,"BE","Bruessel","Villo (cyclocity/JCDecaux)","2026-07-01 04:02:33"
"297","TENREUKEN",50.804951,4.426541,25,17,7,"BE","Bruessel","Villo (cyclocity/JCDecaux)","2026-07-01 04:02:33"
"298","HALL DES SPORTS / SPORTHAL",50.877082,4.301232,25,13,12,"BE","Bruessel","Villo (cyclocity/JCDecaux)","2026-07-01 04:02:33"
"299","SAINT-ADRIEN / SINT-ADRIANUS",50.809494,4.386465,20,6,14,"BE","Bruessel","Villo (cyclocity/JCDecaux)","2026-07-01 04:02:33"
"300","BOONDAEL GARE / BOONDAAL STATION",50.801455,4.392831,25,17,7,"BE","Bruessel","Villo (cyclocity/JCDecaux)","2026-07-01 04:02:33"
"301","MARIE-JOSE",50.806552,4.387843,22,6,15,"BE","Bruessel","Villo (cyclocity/JCDecaux)","2026-07-01 04:02:33"
"303","VIEUX TILLEUL / OUDE LINDE",50.807938,4.392845,25,15,10,"BE","Bruessel","Villo (cyclocity/JCDecaux)","2026-07-01 04:02:33"
"305","PETER BENOIT",50.895592,4.387965,25,11,14,"BE","Bruessel","Villo (cyclocity/JCDecaux)","2026-07-01 04:02:33"
"306","HEEMBEEK",50.889187,4.37499,25,10,13,"BE","Bruessel","Villo (cyclocity/JCDecaux)","2026-07-01 04:02:33"
"307","KAREL BOGAERD",50.88194,4.347501,20,8,12,"BE","Bruessel","Villo (cyclocity/JCDecaux)","2026-07-01 04:02:33"
"308","TIVOLI",50.872276,4.351953,19,11,8,"BE","Bruessel","Villo (cyclocity/JCDecaux)","2026-07-01 04:02:33"
"309","SQUARE DU CENTENAIRE / EEUWFEESTSQUARE",50.875535,4.318377,25,13,12,"BE","Bruessel","Villo (cyclocity/JCDecaux)","2026-07-01 04:02:33"
"310","SAINT-VINCENT / SINT-VINCENTIUS",50.87992,4.400427,20,12,7,"BE","Bruessel","Villo (cyclocity/JCDecaux)","2026-07-01 04:02:33"
"311","DELTA",50.818322,4.404122,22,14,7,"BE","Bruessel","Villo (cyclocity/JCDecaux)","2026-07-01 04:02:33"
"312","CENTRE CULTUREL / CULTUREEL CENTRUM",50.817087,4.426761,25,7,17,"BE","Bruessel","Villo (cyclocity/JCDecaux)","2026-07-01 04:02:33"
"313","DEMEY",50.814858,4.417184,25,9,16,"BE","Bruessel","Villo (cyclocity/JCDecaux)","2026-07-01 04:02:33"
"314","HERRMANN-DEBROUX",50.812325,4.427962,30,14,16,"BE","Bruessel","Villo (cyclocity/JCDecaux)","2026-07-01 04:02:33"
"315","SACRE-COEUR AUDERGHEM / HEILIG HART OUDERGEM",50.810322,4.435789,19,2,15,"BE","Bruessel","Villo (cyclocity/JCDecaux)","2026-07-01 04:02:33"
"317","GEYSKENS",50.820097,4.42214,20,10,10,"BE","Bruessel","Villo (cyclocity/JCDecaux)","2026-07-01 04:02:33"
"318","CARDINAL MERCIER / KARDINAAL MERCIER",50.880539,4.32823,20,11,9,"BE","Bruessel","Villo (cyclocity/JCDecaux)","2026-07-01 04:02:33"
"319","ANCIENNE BARRIERE / OUDE AFSPANNING",50.884954,4.317553,20,6,14,"BE","Bruessel","Villo (cyclocity/JCDecaux)","2026-07-01 04:02:33"
"320","UZ BRUSSEL",50.886451,4.310966,20,7,13,"BE","Bruessel","Villo (cyclocity/JCDecaux)","2026-07-01 04:02:33"
"321","SACRE-CŒUR DE JETTE / HEILIG HART VAN JETTE",50.884229,4.330276,19,13,6,"BE","Bruessel","Villo (cyclocity/JCDecaux)","2026-07-01 04:02:33"
"322","PARC ROI BAUDOUIN / KONING BOUDEWIJNPARK",50.889582,4.316351,20,8,11,"BE","Bruessel","Villo (cyclocity/JCDecaux)","2026-07-01 04:02:33"
"323","CARENE / CARINA",50.85517,4.415303,20,13,5,"BE","Bruessel","Villo (cyclocity/JCDecaux)","2026-07-01 04:02:33"
"324","THOMAS BALIS",50.819641,4.412926,25,2,20,"BE","Bruessel","Villo (cyclocity/JCDecaux)","2026-07-01 04:02:33"
"325","HANKAR",50.821441,4.406925,25,18,7,"BE","Bruessel","Villo (cyclocity/JCDecaux)","2026-07-01 04:02:33"
"326","ADEPS",50.809406,4.443777,22,13,9,"BE","Bruessel","Villo (cyclocity/JCDecaux)","2026-07-01 04:02:33"
"327","SIBELGA",50.874082,4.362205,20,10,10,"BE","Bruessel","Villo (cyclocity/JCDecaux)","2026-07-01 04:02:33"
"328","HEYDENBERG",50.849386,4.41712,20,12,8,"BE","Bruessel","Villo (cyclocity/JCDecaux)","2026-07-01 04:02:33"
"329","ROODEBEEK",50.847617,4.436084,24,12,12,"BE","Bruessel","Villo (cyclocity/JCDecaux)","2026-07-01 04:02:33"
"330","VANDERVELDE",50.847546,4.450015,25,10,15,"BE","Bruessel","Villo (cyclocity/JCDecaux)","2026-07-01 04:02:33"
"331","GEORGES HENRI",50.842319,4.406295,20,11,9,"BE","Bruessel","Villo (cyclocity/JCDecaux)","2026-07-01 04:02:33"
"332","VERGOTE",50.845229,4.404311,24,13,11,"BE","Bruessel","Villo (cyclocity/JCDecaux)","2026-07-01 04:02:33"
"333","TRACTEBEL",50.856582,4.430988,25,12,13,"BE","Bruessel","Villo (cyclocity/JCDecaux)","2026-07-01 04:02:33"
"334","MARCEL THIRY",50.855593,4.439625,20,8,12,"BE","Bruessel","Villo (cyclocity/JCDecaux)","2026-07-01 04:02:33"
"335","THIRY",50.854231,4.444034,20,10,10,"BE","Bruessel","Villo (cyclocity/JCDecaux)","2026-07-01 04:02:33"
"336","KRAAINEM",50.848578,4.459038,17,8,9,"BE","Bruessel","Villo (cyclocity/JCDecaux)","2026-07-01 04:02:33"
"337","SHOPPING",50.843779,4.437698,20,11,9,"BE","Bruessel","Villo (cyclocity/JCDecaux)","2026-07-01 04:02:33"
"338","UCL",50.851073,4.452706,24,10,14,"BE","Bruessel","Villo (cyclocity/JCDecaux)","2026-07-01 04:02:33"
"339","MEUDON",50.845365,4.41788,22,17,5,"BE","Bruessel","Villo (cyclocity/JCDecaux)","2026-07-01 04:02:33"
"340","TOMBERG",50.843617,4.425324,24,13,11,"BE","Bruessel","Villo (cyclocity/JCDecaux)","2026-07-01 04:02:33"
"342","MAISON COMM. BERCHEM / GEMEENTEH. BERCHEM",50.864771,4.294266,20,9,10,"BE","Bruessel","Villo (cyclocity/JCDecaux)","2026-07-01 04:02:33"
"343","VANDENDRIESCH",50.861754,4.292798,20,9,11,"BE","Bruessel","Villo (cyclocity/JCDecaux)","2026-07-01 04:02:33"
"344","BETHLEEM / BETHLEHEM",50.830235,4.337965,20,11,8,"BE","Bruessel","Villo (cyclocity/JCDecaux)","2026-07-01 04:02:33"
"345","TROIS TILLEULS / DRIE LINDEN",50.802713,4.411871,18,8,10,"BE","Bruessel","Villo (cyclocity/JCDecaux)","2026-07-01 04:02:33"
"346","RECHERCHE / RESEARCH",50.81595,4.273669,20,12,7,"BE","Bruessel","Villo (cyclocity/JCDecaux)","2026-07-01 04:02:33"
"347","ERASME / ERASMUS",50.814961,4.265429,25,6,19,"BE","Bruessel","Villo (cyclocity/JCDecaux)","2026-07-01 04:02:33"
"348","HANSEN-SOULIE",50.831078,4.398546,24,12,12,"BE","Bruessel","Villo (cyclocity/JCDecaux)","2026-07-01 04:02:33"
"349","FONSNY",50.833444,4.334857,20,9,11,"BE","Bruessel","Villo (cyclocity/JCDecaux)","2026-07-01 04:02:33"
"350","VERHEYLEWEGHEN",50.848184,4.425621,22,18,4,"BE","Bruessel","Villo (cyclocity/JCDecaux)","2026-07-01 04:02:33"
"351","ULB",50.813945,4.384019,25,5,19,"BE","Bruessel","Villo (cyclocity/JCDecaux)","2026-07-01 04:02:33"
"352","ROUGE-CLOÎTRE / ROODKLOOSTER",50.814264,4.443479,23,9,14,"BE","Bruessel","Villo (cyclocity/JCDecaux)","2026-07-01 04:02:33"
"353","BEAULIEU",50.815681,4.40812,20,6,14,"BE","Bruessel","Villo (cyclocity/JCDecaux)","2026-07-01 04:02:33"
"354","TRIOMPHE / TRIOMF",50.821515,4.402259,20,12,8,"BE","Bruessel","Villo (cyclocity/JCDecaux)","2026-07-01 04:02:33"
"355","PARNASSE / PARNASSUS",50.837738,4.3692,22,9,10,"BE","Bruessel","Villo (cyclocity/JCDecaux)","2026-07-01 04:02:33"
"356","SPORTCITY",50.829715,4.455151,16,7,9,"BE","Bruessel","Villo (cyclocity/JCDecaux)","2026-07-01 04:02:33"
"357","AVIATION / LUCHTVAART",50.834556,4.456873,20,10,10,"BE","Bruessel","Villo (cyclocity/JCDecaux)","2026-07-01 04:02:33"
"358","MADOUX",50.82708,4.444795,25,9,16,"BE","Bruessel","Villo (cyclocity/JCDecaux)","2026-07-01 04:02:33"
"359","JCDECAUX",50.867708,4.357532,20,10,10,"BE","Bruessel","Villo (cyclocity/JCDecaux)","2026-07-01 04:02:33"
"360","STOCKEL / STOKKEL",50.841609,4.465632,24,12,12,"BE","Bruessel","Villo (cyclocity/JCDecaux)","2026-07-01 04:02:33"
"362","GARE DE BERCHEM / BERCHEM STATION",50.872491,4.290227,20,12,8,"BE","Bruessel","Villo (cyclocity/JCDecaux)","2026-07-01 04:02:33"
"364","DOCKS BRUXSEL",50.879086,4.374729,20,6,14,"BE","Bruessel","Villo (cyclocity/JCDecaux)","2026-07-01 04:02:33"
"365","ADOLPHE MAX",50.854062,4.356368,21,9,12,"BE","Bruessel","Villo (cyclocity/JCDecaux)","2026-07-01 04:02:33"
"369","",50.846755,4.352001,0,0,0,"BE","Bruessel","Villo (cyclocity/JCDecaux)","2026-07-01 04:02:33"
"1002","",50.846755,4.352001,1,0,1,"BE","Bruessel","Villo (cyclocity/JCDecaux)","2026-07-01 04:02:33"
"1003","",50.846755,4.352001,4,0,0,"BE","Bruessel","Villo (cyclocity/JCDecaux)","2026-07-01 04:02:33"
"1005","BORNE ATELIER MECANOS SPL",50.797869,4.289803,2,0,2,"BE","Bruessel","Villo (cyclocity/JCDecaux)","2026-07-01 04:02:33"
"27412c4a-b8b4-4130-86bc-eb86934dacf0","Dott",50.836387,4.318094,NA,1,NA,"BE","Bruessel","Dott","2026-07-01 04:02:33"
"ceb662f2-74e1-46f3-82ba-46e0ac7587a5","Dott",50.88871,4.420262,NA,1,NA,"BE","Bruessel","Dott","2026-07-01 04:02:33"
"04a08ec2-aef1-4948-8938-45c815ec60ca","Dott",50.838153,4.438156,NA,1,NA,"BE","Bruessel","Dott","2026-07-01 04:02:33"
"1777fe86-1b98-4725-8794-bdefaea071b9","Dott",50.854005,4.418074,NA,1,NA,"BE","Bruessel","Dott","2026-07-01 04:02:33"
"b52cf1d7-a932-453c-b798-7ea8947b2695","Dott",50.855408,4.398095,NA,1,NA,"BE","Bruessel","Dott","2026-07-01 04:02:33"
"53a24cd7-15b6-4d3d-a3d3-e94e717e2d06","Dott",50.894012,4.397864,NA,1,NA,"BE","Bruessel","Dott","2026-07-01 04:02:33"
"73f3d6aa-d0a3-42da-9a59-026140f14a5b","Dott",50.847027,4.403225,NA,1,NA,"BE","Bruessel","Dott","2026-07-01 04:02:33"
"4aafce47-e882-48e5-b37c-4586bc618818","Dott",50.835786,4.430961,NA,1,NA,"BE","Bruessel","Dott","2026-07-01 04:02:33"
"b4138d37-a24e-47c9-8e28-a8bee5c4d38b","Dott",50.858517,4.374193,NA,1,NA,"BE","Bruessel","Dott","2026-07-01 04:02:33"
"494b6fb0-5e6f-4d77-805a-4ffe4b1c8199","Dott",50.85402,4.41802,NA,1,NA,"BE","Bruessel","Dott","2026-07-01 04:02:33"
"822515ed-a2f8-4c67-be8a-bed2233a9088","Dott",50.831317,4.356403,NA,1,NA,"BE","Bruessel","Dott","2026-07-01 04:02:33"
"9a88fa1a-5541-44d1-ac1c-bf7e18f06399","Dott",50.825599,4.287628,NA,1,NA,"BE","Bruessel","Dott","2026-07-01 04:02:33"
"0904e921-6351-440a-afa9-fadf34ef5026","Dott",50.78067,4.325904,NA,1,NA,"BE","Bruessel","Dott","2026-07-01 04:02:33"
"c080645d-83ac-4bef-b16e-01bdb4cc769a","Dott",50.843856,4.37196,NA,1,NA,"BE","Bruessel","Dott","2026-07-01 04:02:33"
"1b2055bc-5fc8-463e-83d8-55051d81f1bf","Dott",50.825,4.410876,NA,1,NA,"BE","Bruessel","Dott","2026-07-01 04:02:33"
"17f55aa7-1fc8-4389-914b-3ca0a729062e","Dott",50.891814,4.368462,NA,1,NA,"BE","Bruessel","Dott","2026-07-01 04:02:33"
"c6a962ff-2179-4b22-bc08-d34c5af28d53","Dott",50.897566,4.355125,NA,1,NA,"BE","Bruessel","Dott","2026-07-01 04:02:33"
"de80be5f-01fe-401c-8021-ca895aa7a752","Dott",50.872076,4.392179,NA,1,NA,"BE","Bruessel","Dott","2026-07-01 04:02:33"
"24396cf9-c310-4db9-b1c1-a44159f8a7f2","Dott",50.875102,4.378296,NA,1,NA,"BE","Bruessel","Dott","2026-07-01 04:02:33"
"4c1c62e3-fef7-4ac5-bced-98f13aee509c","Dott",50.87638,4.406854,NA,1,NA,"BE","Bruessel","Dott","2026-07-01 04:02:33"
"225725d9-8cd3-4952-9638-4cb28fdf4302","Dott",50.835934,4.373556,NA,1,NA,"BE","Bruessel","Dott","2026-07-01 04:02:33"
"b4498f63-fdd6-4f5d-82f2-43dc28f08214","Dott",50.874909,4.353763,NA,1,NA,"BE","Bruessel","Dott","2026-07-01 04:02:33"
"c7994069-0246-401d-82bd-4d6be428c755","Dott",50.867032,4.299093,NA,1,NA,"BE","Bruessel","Dott","2026-07-01 04:02:33"
"55cce9b1-19b0-4523-822b-2fd920ce502a","Dott",50.868502,4.28661,NA,1,NA,"BE","Bruessel","Dott","2026-07-01 04:02:33"
"b4ec9714-2613-41da-b9b8-eb02271e3b22","Dott",50.878156,4.355232,NA,1,NA,"BE","Bruessel","Dott","2026-07-01 04:02:33"
"58d7fcfe-a6c6-473a-83c7-9068f56765c5","Dott",50.897827,4.356911,NA,1,NA,"BE","Bruessel","Dott","2026-07-01 04:02:33"
"10d52db2-5529-4ad9-8124-69a0d059a8f5","Dott",50.870945,4.397321,NA,1,NA,"BE","Bruessel","Dott","2026-07-01 04:02:33"
"19d51f55-bfa3-40e9-818d-636d4e4de9ab","Dott",50.806568,4.299535,NA,1,NA,"BE","Bruessel","Dott","2026-07-01 04:02:33"
"91ece200-0dfe-4e22-8d1b-88a13b7c5d1b","Dott",50.804716,4.342189,NA,1,NA,"BE","Bruessel","Dott","2026-07-01 04:02:33"
"2cfab07b-7368-4e2e-86b0-13bead803fe8","Dott",50.86849,4.286631,NA,1,NA,"BE","Bruessel","Dott","2026-07-01 04:02:33"
"256da92c-6611-4084-978d-ecc3b06e4dd1","Dott",50.835523,4.41473,NA,1,NA,"BE","Bruessel","Dott","2026-07-01 04:02:33"
"4334c481-1552-4ec9-8da8-d0dfc0f871a1","Dott",50.838976,4.333456,NA,1,NA,"BE","Bruessel","Dott","2026-07-01 04:02:33"
"36e2d086-e1c1-4d2b-9b5c-f31b9d856c6f","Dott",50.804484,4.439052,NA,1,NA,"BE","Bruessel","Dott","2026-07-01 04:02:33"
"0397b2c3-a2bf-4b2d-af0b-f558fc16d29a","Dott",50.812614,4.270314,NA,1,NA,"BE","Bruessel","Dott","2026-07-01 04:02:33"
"c9cd6e8d-eae5-43df-93a7-36510e493a69","Dott",50.816821,4.437282,NA,1,NA,"BE","Bruessel","Dott","2026-07-01 04:02:33"
"945e9c70-bd37-4a02-aba3-2202638c282b","Dott",50.82025,4.359315,NA,1,NA,"BE","Bruessel","Dott","2026-07-01 04:02:33"
"529ab783-f491-4147-a443-22c625368723","Dott",50.823242,4.460584,NA,1,NA,"BE","Bruessel","Dott","2026-07-01 04:02:33"
"1a1576eb-8c74-46f1-8637-c533efbc63e2","Dott",50.82106,4.377586,NA,1,NA,"BE","Bruessel","Dott","2026-07-01 04:02:33"
"701e963e-6efa-46b2-ba7e-b9fc6f784d83","Dott",50.900254,4.357823,NA,1,NA,"BE","Bruessel","Dott","2026-07-01 04:02:33"
"226cad0c-6fd8-4ff4-a82e-8c99048661f0","Dott",50.826662,4.388182,NA,1,NA,"BE","Bruessel","Dott","2026-07-01 04:02:33"
"9f60af37-1eb4-4184-a006-699e3052182a","Dott",50.892766,4.321921,NA,1,NA,"BE","Bruessel","Dott","2026-07-01 04:02:33"
"6c46f660-d895-4a3e-96b7-5c659add01f1","Dott",50.849781,4.383408,NA,1,NA,"BE","Bruessel","Dott","2026-07-01 04:02:33"
"6606a979-becc-4c4f-9a9e-4c46bff15df9","Dott",50.825124,4.278625,NA,1,NA,"BE","Bruessel","Dott","2026-07-01 04:02:33"
"6b54b092-1bdd-403d-958d-be0f564645ed","Dott",50.836374,4.318106,NA,1,NA,"BE","Bruessel","Dott","2026-07-01 04:02:33"
"4ded954a-739e-4b40-a6ae-9c89e0ef48c8","Dott",50.826457,4.456672,NA,1,NA,"BE","Bruessel","Dott","2026-07-01 04:02:33"
"d6aa65f5-31f0-4117-a504-05042501f1f7","Dott",50.849268,4.367877,NA,1,NA,"BE","Bruessel","Dott","2026-07-01 04:02:33"
"1088fb1c-fda5-4c55-8619-b8e80349b148","Dott",50.859823,4.376989,NA,1,NA,"BE","Bruessel","Dott","2026-07-01 04:02:33"
"01c326ac-a891-4eb9-b8b0-8e511d10c217","Dott",50.802719,4.336489,NA,1,NA,"BE","Bruessel","Dott","2026-07-01 04:02:33"
"9bbe5a7f-fd15-4afb-b671-897142505d72","Dott",50.897541,4.355035,NA,1,NA,"BE","Bruessel","Dott","2026-07-01 04:02:33"
"f322f219-5aed-45de-bc5a-74eaf263bed9","Dott",50.826333,4.366976,NA,1,NA,"BE","Bruessel","Dott","2026-07-01 04:02:33"
"5d0477d6-1c34-46b9-94d7-4f9bcd77732b","Dott",50.860592,4.287226,NA,1,NA,"BE","Bruessel","Dott","2026-07-01 04:02:33"
"84f8248e-0979-43d1-ba69-935e17aff03e","Dott",50.884057,4.3036,NA,1,NA,"BE","Bruessel","Dott","2026-07-01 04:02:33"
"be6186b2-f0ec-4f20-9dce-ccd1302b4567","Dott",50.826818,4.33469,NA,1,NA,"BE","Bruessel","Dott","2026-07-01 04:02:33"
"cc60c406-01e0-4252-ad8c-2050dc7cb6d0","Dott",50.906112,4.388165,NA,1,NA,"BE","Bruessel","Dott","2026-07-01 04:02:33"
"5247c7f7-c907-4292-b10d-31566ef3734c","Dott",50.804874,4.313219,NA,1,NA,"BE","Bruessel","Dott","2026-07-01 04:02:33"
"7620622d-95ab-4f86-9b38-239f4b5385e7","Dott",50.85728,4.361355,NA,1,NA,"BE","Bruessel","Dott","2026-07-01 04:02:33"
"3e369911-ae6c-461b-bb0c-d400b6212360","Dott",50.850286,4.458505,NA,1,NA,"BE","Bruessel","Dott","2026-07-01 04:02:33"
"3d45d28a-9cc1-427f-ba25-4fdcf66286a6","Dott",50.825047,4.348575,NA,1,NA,"BE","Bruessel","Dott","2026-07-01 04:02:33"
"2444a229-8659-46bd-9fcc-1b1a97dfcd7d","Dott",50.82039,4.308162,NA,1,NA,"BE","Bruessel","Dott","2026-07-01 04:02:33"
"486b3704-b2ed-4597-b2db-20b22d4a9cc1","Dott",50.822576,4.354103,NA,1,NA,"BE","Bruessel","Dott","2026-07-01 04:02:33"
"2c73de03-8e0c-477b-8053-5dfdbe78a71a","Dott",50.825137,4.278651,NA,1,NA,"BE","Bruessel","Dott","2026-07-01 04:02:33"
"cf91861f-f70f-4af4-93e0-edd90cbcaa91","Dott",50.815276,4.266118,NA,1,NA,"BE","Bruessel","Dott","2026-07-01 04:02:33"
"fabaa425-93ae-4077-bbd1-ce2410fc7bf6","Dott",50.797257,4.33605,NA,1,NA,"BE","Bruessel","Dott","2026-07-01 04:02:33"
"b81da6ab-bcee-484f-8b0e-286e6b0a41b4","Dott",50.866513,4.365973,NA,1,NA,"BE","Bruessel","Dott","2026-07-01 04:02:33"
"3dbb7e87-3e00-4a8c-8e44-00e711a45138","Dott",50.870286,4.343357,NA,1,NA,"BE","Bruessel","Dott","2026-07-01 04:02:33"
"77218e07-7e51-44b0-a91b-09ee00006947","Dott",50.878359,4.375559,NA,1,NA,"BE","Bruessel","Dott","2026-07-01 04:02:33"
"55d26b30-52e8-414c-b704-cf7ea61825ff","Dott",50.822242,4.357962,NA,1,NA,"BE","Bruessel","Dott","2026-07-01 04:02:33"
"e8b29874-eef2-4b17-a617-25f806d43397","Dott",50.826406,4.456707,NA,1,NA,"BE","Bruessel","Dott","2026-07-01 04:02:33"
"bb952cf8-9b92-405a-818e-b5c024fbf84a","Dott",50.852875,4.39513,NA,1,NA,"BE","Bruessel","Dott","2026-07-01 04:02:33"
"2c8ffa55-4f34-4a53-a562-67ea23102ebc","Dott",50.84433,4.295719,NA,1,NA,"BE","Bruessel","Dott","2026-07-01 04:02:33"
"f26b1148-7d35-448c-8ee3-9c7f75a28e1b","Dott",50.899683,4.357664,NA,1,NA,"BE","Bruessel","Dott","2026-07-01 04:02:33"
"b0b71377-8f61-4892-82d8-e15c7f2733d4","Dott",50.861484,4.372041,NA,1,NA,"BE","Bruessel","Dott","2026-07-01 04:02:33"
"80f5b6fa-929f-4f0a-9a89-0736d6fe78ae","Dott",50.869565,4.364975,NA,1,NA,"BE","Bruessel","Dott","2026-07-01 04:02:33"
"3e7c0f08-72e2-4854-8523-87f2d949643a","Dott",50.877071,4.317645,NA,1,NA,"BE","Bruessel","Dott","2026-07-01 04:02:33"
"d68f9a55-c7b6-4a5b-9bfd-83d0a6478c64","Dott",50.805617,4.440217,NA,1,NA,"BE","Bruessel","Dott","2026-07-01 04:02:33"
"0de946aa-2248-4fe5-b526-8b0d47d3344b","Dott",50.816306,4.433343,NA,1,NA,"BE","Bruessel","Dott","2026-07-01 04:02:33"
"08227f6a-bfae-482f-ad7c-25552a9189fb","Dott",50.806058,4.311606,NA,1,NA,"BE","Bruessel","Dott","2026-07-01 04:02:33"
"2736936f-8040-4da5-9d1f-0d6a5276d6a7","Dott",50.859549,4.400275,NA,1,NA,"BE","Bruessel","Dott","2026-07-01 04:02:33"
"17c17a21-c296-4c36-a819-85ac95eb8ac4","Dott",50.847032,4.299258,NA,1,NA,"BE","Bruessel","Dott","2026-07-01 04:02:33"
"0c4c28d4-20c3-4452-abec-4641cc950a2c","Dott",50.870924,4.397288,NA,1,NA,"BE","Bruessel","Dott","2026-07-01 04:02:33"
"ccfa693f-d22f-4be2-852b-bf5877842afb","Dott",50.82205,4.288782,NA,1,NA,"BE","Bruessel","Dott","2026-07-01 04:02:33"
"c8a3ca9d-2dff-493c-986f-ae336764bd6f","Dott",50.893054,4.314349,NA,1,NA,"BE","Bruessel","Dott","2026-07-01 04:02:33"
"9ccbb3e9-c3e2-469e-a4bd-c05bdfda7066","Dott",50.775512,4.354457,NA,1,NA,"BE","Bruessel","Dott","2026-07-01 04:02:33"
"9c7c1127-4269-412a-bdf3-21c01ef75ec5","Dott",50.804091,4.35023,NA,1,NA,"BE","Bruessel","Dott","2026-07-01 04:02:33"
"d7975f6e-1a54-447f-b849-b49e3883b686","Dott",50.807607,4.390799,NA,1,NA,"BE","Bruessel","Dott","2026-07-01 04:02:33"
"a2c081a4-d794-4180-b467-e9d3328a73cf","Dott",50.844752,4.398897,NA,1,NA,"BE","Bruessel","Dott","2026-07-01 04:02:33"
"97a511c8-1008-4d39-a16f-039d94f6a49d","Dott",50.814738,4.426151,NA,1,NA,"BE","Bruessel","Dott","2026-07-01 04:02:33"
"0f1911c7-c9dc-4b59-a9e6-928f9f6639ea","Dott",50.800977,4.340875,NA,1,NA,"BE","Bruessel","Dott","2026-07-01 04:02:33"
"cf3db46e-ecd5-4848-97eb-566ef6d37b36","Dott",50.809707,4.313227,NA,1,NA,"BE","Bruessel","Dott","2026-07-01 04:02:33"
"dc7ec63d-3dc6-4742-b041-52caa4951acc","Dott",50.830983,4.371542,NA,1,NA,"BE","Bruessel","Dott","2026-07-01 04:02:33"
"fa0d6353-1a8e-4986-a4a6-b5ae5dfb2f45","Dott",50.807721,4.312313,NA,1,NA,"BE","Bruessel","Dott","2026-07-01 04:02:33"
"5f9a7a39-29cb-4bef-9ba4-2cf1eed1f322","Dott",50.828963,4.355772,NA,1,NA,"BE","Bruessel","Dott","2026-07-01 04:02:33"
"ed50e3b6-ab98-4694-9b18-68d4675be93f","Dott",50.867558,4.357306,NA,1,NA,"BE","Bruessel","Dott","2026-07-01 04:02:33"
"ae8c046d-3664-422a-bf18-6f56c89470cb","Dott",50.872054,4.38537,NA,1,NA,"BE","Bruessel","Dott","2026-07-01 04:02:33"
"550cac18-2ac1-4aad-9764-46f2dae9f5c4","Dott",50.839951,4.2861,NA,1,NA,"BE","Bruessel","Dott","2026-07-01 04:02:33"
"94abb076-2e78-4d33-b7b5-efde81d08a89","Dott",50.805302,4.336641,NA,1,NA,"BE","Bruessel","Dott","2026-07-01 04:02:33"
"b613bf34-4fb9-4b82-b4b0-20bf81c659a9","Dott",50.843871,4.312586,NA,1,NA,"BE","Bruessel","Dott","2026-07-01 04:02:33"
"74bbf66f-5bb1-4013-b476-0f6d09f5d893","Dott",50.839751,4.370093,NA,1,NA,"BE","Bruessel","Dott","2026-07-01 04:02:33"
"db9a1ba2-ec48-4223-85e9-2e75911f024f","Dott",50.816457,4.3915,NA,1,NA,"BE","Bruessel","Dott","2026-07-01 04:02:33"
"4b143831-d07a-44c4-8992-e5e6a1d26d3f","Dott",50.816805,4.437247,NA,1,NA,"BE","Bruessel","Dott","2026-07-01 04:02:33"
"03cb1a03-bd52-4b4d-867b-4165ecbd5e2f","Dott",50.80776,4.312378,NA,1,NA,"BE","Bruessel","Dott","2026-07-01 04:02:33"
"b9217fe5-76e4-426a-a532-394b2d135789","Dott",50.894002,4.397876,NA,1,NA,"BE","Bruessel","Dott","2026-07-01 04:02:33"
"65cd8810-8347-4cac-95bb-0c2365ae3b13","Dott",50.848007,4.391494,NA,1,NA,"BE","Bruessel","Dott","2026-07-01 04:02:33"
"dbc9616e-e3bd-4459-b0a0-b4ba679f2293","Dott",50.878139,4.393393,NA,1,NA,"BE","Bruessel","Dott","2026-07-01 04:02:33"
"d88b9c9b-c74d-4a46-ac80-6e7afc79f3c5","Dott",50.872755,4.289214,NA,1,NA,"BE","Bruessel","Dott","2026-07-01 04:02:33"
"9d089efc-bc3d-4c37-b303-fab44aef38af","Dott",50.825323,4.456884,NA,1,NA,"BE","Bruessel","Dott","2026-07-01 04:02:33"
"96f456fd-ac84-46f5-a92b-39ff98bd470e","Dott",50.828724,4.448278,NA,1,NA,"BE","Bruessel","Dott","2026-07-01 04:02:33"
"a458c71a-0f19-4fd6-b7dd-e3b7be2e1a14","Dott",50.804332,4.439167,NA,1,NA,"BE","Bruessel","Dott","2026-07-01 04:02:33"
"a4bee133-e478-4117-970c-657cdc8a94e9","Dott",50.860603,4.287209,NA,1,NA,"BE","Bruessel","Dott","2026-07-01 04:02:33"
"048b2274-70fd-4c6c-a1c5-4b709e8dbf31","Dott",50.864438,4.282186,NA,1,NA,"BE","Bruessel","Dott","2026-07-01 04:02:33"
"9606caed-5f9d-4a91-af46-61cf68857c02","Dott",50.845871,4.284791,NA,1,NA,"BE","Bruessel","Dott","2026-07-01 04:02:33"
"f2a9bb65-91af-4b25-99d7-ee27db87453f","Dott",50.87519,4.335023,NA,1,NA,"BE","Bruessel","Dott","2026-07-01 04:02:33"
"6e01a243-3170-407b-854b-b335e0f8ce38","Dott",50.833672,4.366757,NA,1,NA,"BE","Bruessel","Dott","2026-07-01 04:02:33"
"0481bc14-e172-4400-adfa-0c78d4323080","Dott",50.870476,4.390956,NA,1,NA,"BE","Bruessel","Dott","2026-07-01 04:02:33"
"216d083b-0508-4208-ab08-eeb7954fc7b0","Dott",50.792392,4.360053,NA,1,NA,"BE","Bruessel","Dott","2026-07-01 04:02:33"
"7b95aa20-4816-4f85-b163-df685e5e721d","Dott",50.816338,4.433374,NA,1,NA,"BE","Bruessel","Dott","2026-07-01 04:02:33"
"168bf3c1-ea6f-4b87-9dbf-befe5acd6490","Dott",50.896321,4.372279,NA,1,NA,"BE","Bruessel","Dott","2026-07-01 04:02:33"
"24d34f3b-1e40-42bf-8d3f-13f139cace55","Dott",50.858295,4.411716,NA,1,NA,"BE","Bruessel","Dott","2026-07-01 04:02:33"
"387c9b5b-35d8-4f60-bbb1-2e0bcfe43c70","Dott",50.842526,4.38325,NA,1,NA,"BE","Bruessel","Dott","2026-07-01 04:02:33"
"cded675e-d478-49fa-b92a-c1b2871152d8","Dott",50.872325,4.379586,NA,1,NA,"BE","Bruessel","Dott","2026-07-01 04:02:33"
"d008a584-e1bc-421d-95b4-200cda879644","Dott",50.834912,4.367657,NA,1,NA,"BE","Bruessel","Dott","2026-07-01 04:02:33"
"762f53fc-c87b-40a7-a2c8-8f5a3b5d8996","Dott",50.819337,4.308875,NA,1,NA,"BE","Bruessel","Dott","2026-07-01 04:02:33"
"bdd90599-63a1-4d44-83f5-449db7fef647","Dott",50.8835,4.420039,NA,1,NA,"BE","Bruessel","Dott","2026-07-01 04:02:33"
"385c268b-0c3f-458f-8a1d-b823288e8d21","Dott",50.806854,4.308499,NA,1,NA,"BE","Bruessel","Dott","2026-07-01 04:02:33"
"963e5ef5-90aa-4454-b6dc-058516270a05","Dott",50.816331,4.307474,NA,1,NA,"BE","Bruessel","Dott","2026-07-01 04:02:33"
"0a293119-b4a3-49a9-9138-34c65af4d24d","Dott",50.858927,4.400725,NA,1,NA,"BE","Bruessel","Dott","2026-07-01 04:02:33"
"d55a6ff7-7ae2-4b4e-baea-d8eceb0a4457","Dott",50.825136,4.297828,NA,1,NA,"BE","Bruessel","Dott","2026-07-01 04:02:33"
"ce6da9a7-71e3-4cd6-a353-1799a2c3df74","Dott",50.867828,4.335896,NA,1,NA,"BE","Bruessel","Dott","2026-07-01 04:02:33"
"7b80e245-f2b2-4c87-b7cf-20bc69810169","Dott",50.88868,4.420271,NA,1,NA,"BE","Bruessel","Dott","2026-07-01 04:02:33"
"edcba9a2-2196-484f-babf-897401ebf0ba","Dott",50.841877,4.450355,NA,1,NA,"BE","Bruessel","Dott","2026-07-01 04:02:33"
"56190278-1a3d-4138-891d-3169747458cf","Dott",50.797855,4.311134,NA,1,NA,"BE","Bruessel","Dott","2026-07-01 04:02:33"
"2044b320-94cf-4e97-9e21-464701d0f0b2","Dott",50.797417,4.395159,NA,1,NA,"BE","Bruessel","Dott","2026-07-01 04:02:33"
"75da29cc-ece1-4ffd-95a4-68c084a5a1dc","Dott",50.862989,4.411423,NA,1,NA,"BE","Bruessel","Dott","2026-07-01 04:02:33"
"2f945c1b-dfb9-4c77-89dc-2e5b7bea2ebb","Dott",50.802749,4.336545,NA,1,NA,"BE","Bruessel","Dott","2026-07-01 04:02:33"
"dd7d6892-a309-4b6b-bb32-696e25917a10","Dott",50.878382,4.308834,NA,1,NA,"BE","Bruessel","Dott","2026-07-01 04:02:33"
"86cc0ad7-2c7f-4a5e-997f-617831a2d7e2","Dott",50.879035,4.300893,NA,1,NA,"BE","Bruessel","Dott","2026-07-01 04:02:33"
"4709ca57-69d2-4517-aba9-5db31bd2ae4f","Dott",50.81531,4.266119,NA,1,NA,"BE","Bruessel","Dott","2026-07-01 04:02:33"
"557e8416-1aa5-4064-a2fa-dad0e994be0c","Dott",50.820379,4.308199,NA,1,NA,"BE","Bruessel","Dott","2026-07-01 04:02:33"
"5e29a7d4-acfd-4fec-be1e-bcde2a2cb548","Dott",50.836493,4.276218,NA,1,NA,"BE","Bruessel","Dott","2026-07-01 04:02:33"
"4711c455-d7c2-442c-97a8-b2aa1d8f1b33","Dott",50.892775,4.32199,NA,1,NA,"BE","Bruessel","Dott","2026-07-01 04:02:33"
"7f64b778-ae69-43b8-84f3-93c7ff1c74bc","Dott",50.860051,4.410136,NA,1,NA,"BE","Bruessel","Dott","2026-07-01 04:02:33"
"ab587205-82eb-4360-a83d-376072b93b9a","Dott",50.81696,4.366078,NA,1,NA,"BE","Bruessel","Dott","2026-07-01 04:02:33"
"d374671c-e034-4626-b6c1-d90dc6e3f21f","Dott",50.81536,4.388902,NA,1,NA,"BE","Bruessel","Dott","2026-07-01 04:02:33"
"0bfc785e-0a02-40cb-8532-d1fd6a735f44","Dott",50.860565,4.362642,NA,1,NA,"BE","Bruessel","Dott","2026-07-01 04:02:33"
"48cb368c-0386-40b6-aab7-896a7935b46a","Dott",50.866443,4.30349,NA,1,NA,"BE","Bruessel","Dott","2026-07-01 04:02:33"
"48d11ed7-27ba-4dce-bced-13f2f4be12c6","Dott",50.798872,4.419276,NA,1,NA,"BE","Bruessel","Dott","2026-07-01 04:02:33"
"f50bf4a0-213a-49cd-b604-f63bc7a943fc","Dott",50.810814,4.38191,NA,1,NA,"BE","Bruessel","Dott","2026-07-01 04:02:33"
"31eaa00f-e733-41fc-ae76-87d00fae8954","Dott",50.872807,4.289138,NA,1,NA,"BE","Bruessel","Dott","2026-07-01 04:02:33"
"51dcf41d-ef43-42fd-816f-8f9f75b70096","Dott",50.820688,4.409016,NA,1,NA,"BE","Bruessel","Dott","2026-07-01 04:02:33"
"addab28d-6860-4ae6-8e8e-850d7c5ae2bf","Dott",50.886868,4.352936,NA,1,NA,"BE","Bruessel","Dott","2026-07-01 04:02:33"
"762773b5-b5d3-4319-abe9-97045876df7c","Dott",50.877455,4.408988,NA,1,NA,"BE","Bruessel","Dott","2026-07-01 04:02:33"
"10daa5d8-a42b-467b-89f5-27cd3426a88a","Dott",50.899196,4.402967,NA,1,NA,"BE","Bruessel","Dott","2026-07-01 04:02:33"
"fb399796-7110-4c00-84d2-64821d217d98","Dott",50.819333,4.389832,NA,1,NA,"BE","Bruessel","Dott","2026-07-01 04:02:33"
"125b729e-209e-47c6-a9c8-4f9be899fd49","Dott",50.85693,4.413072,NA,1,NA,"BE","Bruessel","Dott","2026-07-01 04:02:33"
"63917ec6-0e26-42f6-9e3b-07d3eb1ae735","Dott",50.815222,4.409246,NA,1,NA,"BE","Bruessel","Dott","2026-07-01 04:02:33"
"1ff0692d-385c-42e8-b21d-c9c4c8d4c465","Dott",50.876062,4.411629,NA,1,NA,"BE","Bruessel","Dott","2026-07-01 04:02:33"
"f0c01fe6-2537-42ae-8984-60be3a30f439","Dott",50.816626,4.297178,NA,1,NA,"BE","Bruessel","Dott","2026-07-01 04:02:33"
"93440117-c310-4335-8196-87596343740f","Dott",50.893741,4.397828,NA,1,NA,"BE","Bruessel","Dott","2026-07-01 04:02:33"
"cc9bc0e2-9e5b-44d2-a397-ee62b2add677","Dott",50.826662,4.34874,NA,1,NA,"BE","Bruessel","Dott","2026-07-01 04:02:33"
"147478d8-271c-45af-af02-46bd33be4609","Dott",50.89024,4.377934,NA,1,NA,"BE","Bruessel","Dott","2026-07-01 04:02:33"
"2eafd6d1-24b0-46b0-b629-f5286580c41d","Dott",50.832026,4.387781,NA,1,NA,"BE","Bruessel","Dott","2026-07-01 04:02:33"
"ce6253cb-57e9-4cfa-9d69-e2b361886458","Dott",50.852984,4.301521,NA,1,NA,"BE","Bruessel","Dott","2026-07-01 04:02:33"
"75eb4fee-0c6a-4e48-815e-a19f93a28068","Dott",50.872777,4.289151,NA,1,NA,"BE","Bruessel","Dott","2026-07-01 04:02:33"
"c4b4c1c8-3d32-4540-a1ef-ed01c1eb2614","Dott",50.856395,4.344901,NA,1,NA,"BE","Bruessel","Dott","2026-07-01 04:02:33"
"cbf67b41-234e-43fa-beb7-d61320512cce","Dott",50.817821,4.392952,NA,1,NA,"BE","Bruessel","Dott","2026-07-01 04:02:33"
"1dd63210-d678-4738-852f-e953f148e3d2","Dott",50.857332,4.361435,NA,1,NA,"BE","Bruessel","Dott","2026-07-01 04:02:33"
"f47c7acd-3af4-49a0-a619-5542ee6185d7","Dott",50.893014,4.314339,NA,1,NA,"BE","Bruessel","Dott","2026-07-01 04:02:33"
"95cf1a08-8fe8-4b66-9276-3d47f0970f88","Dott",50.895481,4.355439,NA,1,NA,"BE","Bruessel","Dott","2026-07-01 04:02:33"
"326e5307-e565-4a54-9a8e-a556e1b256d4","Dott",50.868503,4.286605,NA,1,NA,"BE","Bruessel","Dott","2026-07-01 04:02:33"
"786a4783-3841-4fd1-bb58-710faf13cfe8","Dott",50.876413,4.347245,NA,1,NA,"BE","Bruessel","Dott","2026-07-01 04:02:33"
"72bab800-bed5-4a74-9c82-da4fac04b707","Dott",50.873561,4.409568,NA,1,NA,"BE","Bruessel","Dott","2026-07-01 04:02:33"
"1272468f-986d-4d67-bbae-c39c4b770769","Dott",50.836313,4.311986,NA,1,NA,"BE","Bruessel","Dott","2026-07-01 04:02:33"
"6105c592-af23-4fa9-b1e0-70aa9f409146","Dott",50.908516,4.406576,NA,1,NA,"BE","Bruessel","Dott","2026-07-01 04:02:33"
"99f3c201-7d0e-4983-8c25-4bdb2cc45825","Dott",50.871849,4.375653,NA,1,NA,"BE","Bruessel","Dott","2026-07-01 04:02:33"
"ca3c4e74-8ae9-4320-aa68-e9cadc4e0bd4","Dott",50.893007,4.424203,NA,1,NA,"BE","Bruessel","Dott","2026-07-01 04:02:33"
"40be6de4-aa2c-48f9-9616-817ddcb7a84c","Dott",50.864038,4.390203,NA,1,NA,"BE","Bruessel","Dott","2026-07-01 04:02:33"
"064b291d-595c-419a-a467-8d1d39e8b607","Dott",50.820507,4.373391,NA,1,NA,"BE","Bruessel","Dott","2026-07-01 04:02:33"
"072194b3-4098-48f7-83e1-a86013439456","Dott",50.853532,4.338414,NA,1,NA,"BE","Bruessel","Dott","2026-07-01 04:02:33"
"e57aa36e-58a1-4d01-afe1-da91a9fa92bf","Dott",50.893829,4.430429,NA,1,NA,"BE","Bruessel","Dott","2026-07-01 04:02:33"
"4ed996ca-d1dd-47a2-9329-3172de6f9a8f","Dott",50.827136,4.40433,NA,1,NA,"BE","Bruessel","Dott","2026-07-01 04:02:33"
"a6f005fb-3e0e-4432-8341-e777e2b336cd","Dott",50.837347,4.349503,NA,1,NA,"BE","Bruessel","Dott","2026-07-01 04:02:33"
"33b6338e-ae15-4789-ab0f-4184ca80f1ff","Dott",50.882498,4.322241,NA,1,NA,"BE","Bruessel","Dott","2026-07-01 04:02:33"
"1f0a24a3-7063-4e4a-880d-047d8e4cd704","Dott",50.82773,4.336934,NA,1,NA,"BE","Bruessel","Dott","2026-07-01 04:02:33"
"45ef4bc7-793c-4d72-9322-9c5642a50574","Dott",50.827294,4.445999,NA,1,NA,"BE","Bruessel","Dott","2026-07-01 04:02:33"
"e6a17ecd-80c7-4be4-821f-7b27a83de82d","Dott",50.874847,4.353729,NA,1,NA,"BE","Bruessel","Dott","2026-07-01 04:02:33"
"d63ca64e-f496-4b1f-a180-3656b8328421","Dott",50.834383,4.362726,NA,1,NA,"BE","Bruessel","Dott","2026-07-01 04:02:33"
"87336709-2180-4c7c-8354-819735963031","Dott",50.887571,4.378074,NA,1,NA,"BE","Bruessel","Dott","2026-07-01 04:02:33"
"c234f4c0-f926-423c-81ef-906858fd4f47","Dott",50.874837,4.321432,NA,1,NA,"BE","Bruessel","Dott","2026-07-01 04:02:33"
"8ac7702f-8b32-4567-88e4-64c2e8ea5ff9","Dott",50.868528,4.286571,NA,1,NA,"BE","Bruessel","Dott","2026-07-01 04:02:33"
"a40b4244-22ab-46d1-bcdf-58ad8c82473a","Dott",50.867039,4.299081,NA,1,NA,"BE","Bruessel","Dott","2026-07-01 04:02:33"
"f80a8cae-d20a-4d25-9960-82a3419cbc1f","Dott",50.881669,4.373999,NA,1,NA,"BE","Bruessel","Dott","2026-07-01 04:02:33"
"e54f5291-8327-4c00-b55b-5e982cf91abd","Dott",50.799951,4.375017,NA,1,NA,"BE","Bruessel","Dott","2026-07-01 04:02:33"
"427a5137-b8da-42b3-bb93-0b7231031967","Dott",50.853884,4.373482,NA,1,NA,"BE","Bruessel","Dott","2026-07-01 04:02:33"
"9092df2c-d6a6-4c30-a24b-faf2d10f9d6c","Dott",50.835762,4.347471,NA,1,NA,"BE","Bruessel","Dott","2026-07-01 04:02:33"
"dce553ac-0cf8-48d3-93e2-bd86c253ed98","Dott",50.900784,4.385133,NA,1,NA,"BE","Bruessel","Dott","2026-07-01 04:02:33"
"80ab2518-b74d-4524-a084-56b510bf6347","Dott",50.870779,4.333335,NA,1,NA,"BE","Bruessel","Dott","2026-07-01 04:02:33"
"ed4b8cbe-9a26-44e9-958e-4e0b6196651f","Dott",50.818938,4.378652,NA,1,NA,"BE","Bruessel","Dott","2026-07-01 04:02:33"
"e6c0cdc4-19e4-4c7d-8c73-61240593b325","Dott",50.853065,4.437396,NA,1,NA,"BE","Bruessel","Dott","2026-07-01 04:02:33"
"10fee4c9-3d9a-40f8-b9a7-c4e59d5f4270","Dott",50.843616,4.411908,NA,1,NA,"BE","Bruessel","Dott","2026-07-01 04:02:33"
"56666396-0e29-4ddf-be6a-83685fc60379","Dott",50.813964,4.306267,NA,1,NA,"BE","Bruessel","Dott","2026-07-01 04:02:33"
"6ce8f28d-ab13-41bc-a8dd-898039a38fcb","Dott",50.804059,4.3999,NA,1,NA,"BE","Bruessel","Dott","2026-07-01 04:02:33"
"6c002088-9f3a-4ffa-ada3-926d3daaeeae","Dott",50.840968,4.289128,NA,1,NA,"BE","Bruessel","Dott","2026-07-01 04:02:33"
"96879b79-95af-4a32-99eb-95c13663330d","Dott",50.887642,4.383926,NA,1,NA,"BE","Bruessel","Dott","2026-07-01 04:02:33"
"2f946fae-16c9-4f43-85ad-528b5e357fb7","Dott",50.858981,4.369425,NA,1,NA,"BE","Bruessel","Dott","2026-07-01 04:02:33"
"d8bab95a-e6e4-4524-b6c2-3ece7a0b224f","Dott",50.833325,4.385841,NA,1,NA,"BE","Bruessel","Dott","2026-07-01 04:02:33"
"51c0da65-ee98-4c7d-a6d2-e04fd45767bf","Dott",50.879807,4.356067,NA,1,NA,"BE","Bruessel","Dott","2026-07-01 04:02:33"
"a67733e4-e32e-48d9-b9ae-57110610a5d7","Dott",50.877585,4.30148,NA,1,NA,"BE","Bruessel","Dott","2026-07-01 04:02:33"
"e7f38d90-8e72-4066-b6ce-1c07b4f4ec83","Dott",50.830045,4.30431,NA,1,NA,"BE","Bruessel","Dott","2026-07-01 04:02:33"
"84ed018e-5062-4636-83ee-0c3a4e58fd9e","Dott",50.839961,4.286132,NA,1,NA,"BE","Bruessel","Dott","2026-07-01 04:02:33"
"c1f622f7-cec5-4f37-8c93-597a4d2857f6","Dott",50.82392,4.422804,NA,1,NA,"BE","Bruessel","Dott","2026-07-01 04:02:33"
"2835d0a0-e9ab-4107-bd24-c4b2966c2cd0","Dott",50.80107,4.322503,NA,1,NA,"BE","Bruessel","Dott","2026-07-01 04:02:33"
"6cc873c5-67c5-4f6c-a6e6-b51d1cda1aa0","Dott",50.820615,4.366378,NA,1,NA,"BE","Bruessel","Dott","2026-07-01 04:02:33"
"43d5c600-d03c-40d0-b994-ec9d90547351","Dott",50.827425,4.271754,NA,1,NA,"BE","Bruessel","Dott","2026-07-01 04:02:33"
"9c258ca7-f1a7-4907-91d0-1714929512e9","Dott",50.864425,4.373604,NA,1,NA,"BE","Bruessel","Dott","2026-07-01 04:02:33"
"5d0d6332-c760-41ca-89c2-ed4af4f08589","Dott",50.801761,4.373361,NA,1,NA,"BE","Bruessel","Dott","2026-07-01 04:02:33"
"620bd744-16a5-4fb7-9043-714a9700ec53","Dott",50.87437,4.304275,NA,1,NA,"BE","Bruessel","Dott","2026-07-01 04:02:33"
"d7e35546-787c-41f8-91a7-beeff7cc366f","Dott",50.862635,4.316341,NA,1,NA,"BE","Bruessel","Dott","2026-07-01 04:02:33"
"9a59db06-fc41-42c3-b086-f3af08cd8111","Dott",50.850584,4.297382,NA,1,NA,"BE","Bruessel","Dott","2026-07-01 04:02:33"
"5560f42c-fa6b-4da4-b765-ab6969e5e0b8","Dott",50.817897,4.326885,NA,1,NA,"BE","Bruessel","Dott","2026-07-01 04:02:33"
"d1861e82-2da0-43c3-87ae-22ce4205ed3d","Dott",50.901407,4.348209,NA,1,NA,"BE","Bruessel","Dott","2026-07-01 04:02:33"
"ea1fc055-fb54-4ff9-babe-c395b3684232","Dott",50.869495,4.322052,NA,1,NA,"BE","Bruessel","Dott","2026-07-01 04:02:33"
"ca30d594-1b5f-4292-9ddd-41be40dbe171","Dott",50.898443,4.394486,NA,1,NA,"BE","Bruessel","Dott","2026-07-01 04:02:33"
"56dd70bf-c64e-476a-ac1d-60f55096502f","Dott",50.804423,4.355112,NA,1,NA,"BE","Bruessel","Dott","2026-07-01 04:02:33"
"c197c1d0-f537-4b8f-9204-8f77edaa6e4b","Dott",50.871487,4.310985,NA,1,NA,"BE","Bruessel","Dott","2026-07-01 04:02:33"
"5b370e9b-7d39-418e-ba7a-65c59fdfb232","Dott",50.816319,4.43331,NA,1,NA,"BE","Bruessel","Dott","2026-07-01 04:02:33"
"1a4b9676-0214-49d9-a2b7-a41cb5256b14","Dott",50.892755,4.321971,NA,1,NA,"BE","Bruessel","Dott","2026-07-01 04:02:33"
"cdde5f7c-75a3-43d5-8861-88251dc96754","Dott",50.813013,4.329406,NA,1,NA,"BE","Bruessel","Dott","2026-07-01 04:02:33"
"7abd84da-e58f-4ae9-946c-881b78e7a64b","Dott",50.838001,4.375077,NA,1,NA,"BE","Bruessel","Dott","2026-07-01 04:02:33"
"ce0cd4d6-5ce1-4334-8198-89378e44c99a","Dott",50.875992,4.411619,NA,1,NA,"BE","Bruessel","Dott","2026-07-01 04:02:33"
"79edd0d3-21f4-4ac3-9618-f3f56260da7a","Dott",50.875495,4.38682,NA,1,NA,"BE","Bruessel","Dott","2026-07-01 04:02:33"
"b85fd40b-e561-48c7-b336-e14f6e781c1b","Dott",50.873774,4.384556,NA,1,NA,"BE","Bruessel","Dott","2026-07-01 04:02:33"
"b3977f4c-f0c8-4767-942e-1b5676616f7f","Dott",50.834891,4.367644,NA,1,NA,"BE","Bruessel","Dott","2026-07-01 04:02:33"
"92920dd5-3add-4559-a583-74642090924e","Dott",50.805939,4.327107,NA,1,NA,"BE","Bruessel","Dott","2026-07-01 04:02:33"
"2a215530-acee-4404-a6c0-b30b73021b5a","Dott",50.829202,4.316909,NA,1,NA,"BE","Bruessel","Dott","2026-07-01 04:02:33"
"cb4cbf48-c35f-4ca8-9a31-7b3f9c20dd4c","Dott",50.888179,4.355197,NA,1,NA,"BE","Bruessel","Dott","2026-07-01 04:02:33"
"232fa249-1506-4556-a384-045044d02d51","Dott",50.862156,4.426297,NA,1,NA,"BE","Bruessel","Dott","2026-07-01 04:02:33"
"76b1670e-fcbc-450c-a996-d41a20186e4f","Dott",50.857113,4.377989,NA,1,NA,"BE","Bruessel","Dott","2026-07-01 04:02:33"
"2f751985-6881-4236-a475-4384842ec1bd","Dott",50.839687,4.284852,NA,1,NA,"BE","Bruessel","Dott","2026-07-01 04:02:33"
"de8c5953-84a1-41a3-ba2d-efcf0bdd0c89","Dott",50.830977,4.289456,NA,1,NA,"BE","Bruessel","Dott","2026-07-01 04:02:33"
"06132aab-bc60-4a1c-8796-db6f164cc38c","Dott",50.815186,4.287021,NA,1,NA,"BE","Bruessel","Dott","2026-07-01 04:02:33"
"f37fb721-6e88-45dc-a5b1-f6519073c64b","Dott",50.802753,4.319761,NA,1,NA,"BE","Bruessel","Dott","2026-07-01 04:02:33"
"5161c9f7-dfbd-4607-aa44-210b00e98822","Dott",50.83417,4.362737,NA,1,NA,"BE","Bruessel","Dott","2026-07-01 04:02:33"
"13863a5d-67d5-4443-ac90-8dca09f5c9bf","Dott",50.839842,4.369905,NA,1,NA,"BE","Bruessel","Dott","2026-07-01 04:02:33"
"766715da-0dbc-4bc6-89c5-eaf7d9043c61","Dott",50.897539,4.386018,NA,1,NA,"BE","Bruessel","Dott","2026-07-01 04:02:33"
"a68e1b49-c8c2-4a2b-bf72-bb6ca249d9c6","Dott",50.811736,4.335206,NA,1,NA,"BE","Bruessel","Dott","2026-07-01 04:02:33"
"7a1b4581-6131-4ef2-8301-83df2c022650","Dott",50.855618,4.343096,NA,1,NA,"BE","Bruessel","Dott","2026-07-01 04:02:33"
"291d0315-91d8-475b-a244-3384497c1816","Dott",50.849666,4.370386,NA,1,NA,"BE","Bruessel","Dott","2026-07-01 04:02:33"
"dbb20e75-cead-4d93-b68a-d0b333187f53","Dott",50.86248,4.438897,NA,1,NA,"BE","Bruessel","Dott","2026-07-01 04:02:33"
"79691842-edf5-4bc7-889f-11eb64b02081","Dott",50.839965,4.28607,NA,1,NA,"BE","Bruessel","Dott","2026-07-01 04:02:33"
"51e717fe-79aa-437d-b72e-5c91adab15ff","Dott",50.840024,4.287489,NA,1,NA,"BE","Bruessel","Dott","2026-07-01 04:02:33"
"a04f4fc5-d312-419b-81a2-7135d7050f53","Dott",50.821487,4.356503,NA,1,NA,"BE","Bruessel","Dott","2026-07-01 04:02:33"
"11daee07-6e72-462b-ab62-a56701331682","Dott",50.799705,4.405905,NA,1,NA,"BE","Bruessel","Dott","2026-07-01 04:02:33"
"4af9c38a-0f73-4680-8f49-489ceaaa2aa2","Dott",50.78946,4.421767,NA,1,NA,"BE","Bruessel","Dott","2026-07-01 04:02:33"
"acfa2862-0eff-45a6-aea9-c6c9eba82094","Dott",50.864437,4.282172,NA,1,NA,"BE","Bruessel","Dott","2026-07-01 04:02:33"
"73c02dc0-9e44-41a6-932d-9f92aab648f0","Dott",50.834053,4.314263,NA,1,NA,"BE","Bruessel","Dott","2026-07-01 04:02:33"
"b56db19a-6c25-4c27-b07a-06a8360fcf52","Dott",50.87308,4.334165,NA,1,NA,"BE","Bruessel","Dott","2026-07-01 04:02:33"
"de14fad1-73ec-4bc1-9a02-3d8bfffec60a","Dott",50.85601,4.384103,NA,1,NA,"BE","Bruessel","Dott","2026-07-01 04:02:33"
"ee09f5fa-654c-4ead-8ec2-f34dd035fe03","Dott",50.855157,4.306315,NA,1,NA,"BE","Bruessel","Dott","2026-07-01 04:02:33"
"a5575116-faa5-40f6-8e59-0955c1b251bd","Dott",50.831242,4.455288,NA,1,NA,"BE","Bruessel","Dott","2026-07-01 04:02:33"
"05668f1e-6e8d-43b8-bd75-703b544834f1","Dott",50.832921,4.324863,NA,1,NA,"BE","Bruessel","Dott","2026-07-01 04:02:33"
"e3fba90b-fa35-4092-901f-c62b8db4dd20","Dott",50.875132,4.378234,NA,1,NA,"BE","Bruessel","Dott","2026-07-01 04:02:33"
"ce60ebae-126e-486c-b901-afc7b1aa7ecf","Dott",50.867021,4.299065,NA,1,NA,"BE","Bruessel","Dott","2026-07-01 04:02:33"
"61a22132-c15d-4efc-b2f1-f4cc1d30a578","Dott",50.829495,4.30646,NA,1,NA,"BE","Bruessel","Dott","2026-07-01 04:02:33"
"b6547b88-d191-448c-83eb-ebf948c8ac53","Dott",50.808574,4.325654,NA,1,NA,"BE","Bruessel","Dott","2026-07-01 04:02:33"
"4e588cb0-71f0-4cef-b641-15a8be84b5fd","Dott",50.830716,4.365254,NA,1,NA,"BE","Bruessel","Dott","2026-07-01 04:02:33"
"479b3925-2ead-4626-921c-1d574ce0fd7e","Dott",50.826895,4.385055,NA,1,NA,"BE","Bruessel","Dott","2026-07-01 04:02:33"
"3769f40a-ed62-4352-92f7-beb7362e5fda","Dott",50.810841,4.315095,NA,1,NA,"BE","Bruessel","Dott","2026-07-01 04:02:33"
"7e0d5b4e-b35f-4da9-aa69-7ab0158284f8","Dott",50.878135,4.355261,NA,1,NA,"BE","Bruessel","Dott","2026-07-01 04:02:33"
"5cb41ed7-4832-4490-84f3-e73e6f41af44","Dott",50.866888,4.284485,NA,1,NA,"BE","Bruessel","Dott","2026-07-01 04:02:33"
"47531ff0-d343-4113-9e3e-80b0388a60be","Dott",50.866849,4.284448,NA,1,NA,"BE","Bruessel","Dott","2026-07-01 04:02:33"
"b2c454d2-9e3a-40ca-b1d6-0b1e9354c76e","Dott",50.839696,4.284848,NA,1,NA,"BE","Bruessel","Dott","2026-07-01 04:02:33"
"89d8ceac-29f8-4b9f-824d-d72eaaeadd4a","Dott",50.823925,4.353866,NA,1,NA,"BE","Bruessel","Dott","2026-07-01 04:02:33"
"467f51fb-6d5d-4bdc-8e98-902110a20784","Dott",50.816396,4.290627,NA,1,NA,"BE","Bruessel","Dott","2026-07-01 04:02:33"
"408be49d-9138-4530-b1f1-87c7a982db92","Dott",50.828017,4.461266,NA,1,NA,"BE","Bruessel","Dott","2026-07-01 04:02:33"
"f3ba164d-a536-4a36-b33e-f6c4f7bf40c4","Dott",50.859043,4.36188,NA,1,NA,"BE","Bruessel","Dott","2026-07-01 04:02:33"
"44ee9da8-b23f-4c5e-9488-e951113f6a9c","Dott",50.82039,4.354254,NA,1,NA,"BE","Bruessel","Dott","2026-07-01 04:02:33"
"51b7f5d7-572f-4aab-9cde-933d85917fff","Dott",50.836109,4.272902,NA,1,NA,"BE","Bruessel","Dott","2026-07-01 04:02:33"
"dd8e64a1-6dae-452c-9880-143bb9f0e014","Dott",50.889631,4.416512,NA,1,NA,"BE","Bruessel","Dott","2026-07-01 04:02:33"
"9217d6c0-b2a7-442e-9df7-1384824afd83","Dott",50.852613,4.454983,NA,1,NA,"BE","Bruessel","Dott","2026-07-01 04:02:33"
"f4b65b65-b672-446f-82f1-f9b75dee4926","Dott",50.895489,4.355481,NA,1,NA,"BE","Bruessel","Dott","2026-07-01 04:02:33"
"0c6fde48-dd9c-4053-a872-afca8a3a2e91","Dott",50.84912,4.383467,NA,1,NA,"BE","Bruessel","Dott","2026-07-01 04:02:33"
"ac43b774-d330-4286-b2eb-6a01f51ef818","Dott",50.862538,4.351933,NA,1,NA,"BE","Bruessel","Dott","2026-07-01 04:02:33"
"5c7300ad-b3bc-49b1-b8ff-95b23254d923","Dott",50.837581,4.373673,NA,1,NA,"BE","Bruessel","Dott","2026-07-01 04:02:33"
"8797aa49-8db0-4327-a850-05d261b022e1","Dott",50.889642,4.416571,NA,1,NA,"BE","Bruessel","Dott","2026-07-01 04:02:33"
"35a033c0-7d80-4d73-b486-d809a319cecf","Dott",50.897899,4.356942,NA,1,NA,"BE","Bruessel","Dott","2026-07-01 04:02:33"
"0f7baaa0-86d7-46a1-8cf9-8d37e7cf1747","Dott",50.876051,4.411689,NA,1,NA,"BE","Bruessel","Dott","2026-07-01 04:02:33"
"6add65ce-6ec8-420d-b982-b7ea225a08c4","Dott",50.818905,4.299788,NA,1,NA,"BE","Bruessel","Dott","2026-07-01 04:02:33"
"210f952b-f459-48f3-8ab8-2d0b7e528261","Dott",50.816654,4.297201,NA,1,NA,"BE","Bruessel","Dott","2026-07-01 04:02:33"
"903d13a0-d606-4e04-94da-82b63a031869","Dott",50.81094,4.319258,NA,1,NA,"BE","Bruessel","Dott","2026-07-01 04:02:33"
"db18ff4d-df24-48e8-a4af-e29b7e7d07bf","Dott",50.805996,4.32713,NA,1,NA,"BE","Bruessel","Dott","2026-07-01 04:02:33"
"a7750669-ea70-4c03-b243-cf6adf8ab5d7","Dott",50.825836,4.404065,NA,1,NA,"BE","Bruessel","Dott","2026-07-01 04:02:33"
"20e3508b-1641-437c-86c4-5c49d38a2aa3","Dott",50.84872,4.413808,NA,1,NA,"BE","Bruessel","Dott","2026-07-01 04:02:33"
"4e87f242-400c-4536-b247-8fd7d8313f13","Dott",50.815337,4.266069,NA,1,NA,"BE","Bruessel","Dott","2026-07-01 04:02:33"
"f5e4960b-018b-4e6b-af3e-7dce677c72fd","Dott",50.820624,4.340094,NA,1,NA,"BE","Bruessel","Dott","2026-07-01 04:02:33"
"7777c30e-1c03-431d-9a6a-e38498307447","Dott",50.795252,4.407831,NA,1,NA,"BE","Bruessel","Dott","2026-07-01 04:02:33"
"30078f7b-776f-4983-b50b-0dc5ce25e3fb","Dott",50.835277,4.311566,NA,1,NA,"BE","Bruessel","Dott","2026-07-01 04:02:33"
"7949230f-e7d8-44ba-8c66-36e6764134ad","Dott",50.840381,4.4654,NA,1,NA,"BE","Bruessel","Dott","2026-07-01 04:02:33"
"1b863a70-8ac8-4a0c-8a31-0602c03656d6","Dott",50.801152,4.336638,NA,1,NA,"BE","Bruessel","Dott","2026-07-01 04:02:33"
"da72b798-90dc-4824-92cb-2478ac95aaf0","Dott",50.866263,4.393053,NA,1,NA,"BE","Bruessel","Dott","2026-07-01 04:02:33"
"8b09f18a-da24-4df1-b014-0db68ac5fd9d","Dott",50.816828,4.34031,NA,1,NA,"BE","Bruessel","Dott","2026-07-01 04:02:33"
"ee0806c5-a1f2-4a60-9277-282c920ff1c2","Dott",50.860064,4.410168,NA,1,NA,"BE","Bruessel","Dott","2026-07-01 04:02:33"
"64acacab-5960-41bd-8d11-6a5c2974ffbb","Dott",50.836527,4.326291,NA,1,NA,"BE","Bruessel","Dott","2026-07-01 04:02:33"
"6c3594e4-ad47-430b-9afc-461f0a80b69c","Dott",50.849256,4.32883,NA,1,NA,"BE","Bruessel","Dott","2026-07-01 04:02:33"
"54cdfb13-0d2e-4d33-95b5-d96956ad04a6","Dott",50.807291,4.348269,NA,1,NA,"BE","Bruessel","Dott","2026-07-01 04:02:33"
"82e90a9a-2cc6-49c5-bfc1-f3b28e2257d9","Dott",50.900128,4.362562,NA,1,NA,"BE","Bruessel","Dott","2026-07-01 04:02:33"
"6b8c3cac-dea6-42c4-b17b-edb84fcd1aa5","Dott",50.866136,4.388031,NA,1,NA,"BE","Bruessel","Dott","2026-07-01 04:02:33"
"d19b62fa-e053-47a6-8532-0ea2b957c1af","Dott",50.800067,4.341706,NA,1,NA,"BE","Bruessel","Dott","2026-07-01 04:02:33"
"95dc222a-427c-42e2-ac35-cc66b80f096d","Dott",50.840712,4.419281,NA,1,NA,"BE","Bruessel","Dott","2026-07-01 04:02:33"
"a1c27980-f570-4574-a387-3d790ac78a84","Dott",50.830698,4.399397,NA,1,NA,"BE","Bruessel","Dott","2026-07-01 04:02:33"
"1066fe8f-3124-4998-a1ad-0ea517212eb0","Dott",50.824212,4.324103,NA,1,NA,"BE","Bruessel","Dott","2026-07-01 04:02:33"
"75b019e4-d5fb-4bd9-ae97-20fc72b7d475","Dott",50.812939,4.434426,NA,1,NA,"BE","Bruessel","Dott","2026-07-01 04:02:33"
"65d3e73c-1536-4a40-922f-731452a1f651","Dott",50.876292,4.357278,NA,1,NA,"BE","Bruessel","Dott","2026-07-01 04:02:33"
"9f677a24-1572-4b23-8ede-4c07abdd0315","Dott",50.895529,4.355601,NA,1,NA,"BE","Bruessel","Dott","2026-07-01 04:02:33"
"c35f4d62-0a57-457c-9a8f-de53e2f9890a","Dott",50.844459,4.405373,NA,1,NA,"BE","Bruessel","Dott","2026-07-01 04:02:33"
"5a01c652-76bb-4279-a38a-5111dae70a48","Dott",50.812963,4.42158,NA,1,NA,"BE","Bruessel","Dott","2026-07-01 04:02:33"
"aa83b896-314a-4f50-b99d-faddaa0aa173","Dott",50.861717,4.352133,NA,1,NA,"BE","Bruessel","Dott","2026-07-01 04:02:33"
"666f9e87-c17e-41da-a2b6-14ce9123d383","Dott",50.88058,4.300418,NA,1,NA,"BE","Bruessel","Dott","2026-07-01 04:02:33"
"ef4ea88d-34f9-4bfe-8fc6-518938ffcc8f","Dott",50.858162,4.397043,NA,1,NA,"BE","Bruessel","Dott","2026-07-01 04:02:33"
"34c5c8ee-ce99-41f1-8a93-c4cadc4c3016","Dott",50.80393,4.410446,NA,1,NA,"BE","Bruessel","Dott","2026-07-01 04:02:33"
"986ba37d-a79d-4cec-a666-703cef38141f","Dott",50.868083,4.353449,NA,1,NA,"BE","Bruessel","Dott","2026-07-01 04:02:33"
"e1d19cad-a5b5-4fed-be3c-152ba65edf1b","Dott",50.840179,4.344876,NA,1,NA,"BE","Bruessel","Dott","2026-07-01 04:02:33"
"20b57b17-8969-43b8-8c89-eb43abb0ea6f","Dott",50.84863,4.428937,NA,1,NA,"BE","Bruessel","Dott","2026-07-01 04:02:33"
"780c2715-b129-442a-b468-d61ec3d3f586","Dott",50.891706,4.320144,NA,1,NA,"BE","Bruessel","Dott","2026-07-01 04:02:33"
"b7627240-06b4-4787-af03-3b6c8ebb4234","Dott",50.805572,4.422189,NA,1,NA,"BE","Bruessel","Dott","2026-07-01 04:02:33"
"b60f5335-5b73-4fd9-871d-07f4103f142b","Dott",50.819342,4.361319,NA,1,NA,"BE","Bruessel","Dott","2026-07-01 04:02:33"
"4f9ef79c-c621-4542-8d0f-4a1c3913ccd1","Dott",50.859589,4.293632,NA,1,NA,"BE","Bruessel","Dott","2026-07-01 04:02:33"
"0cf17b59-c5d9-47e2-bbf1-39b532b700b3","Dott",50.873957,4.360531,NA,1,NA,"BE","Bruessel","Dott","2026-07-01 04:02:33"
"2e0519c7-ac88-4b81-911f-e41f3f94e7a8","Dott",50.850283,4.458481,NA,1,NA,"BE","Bruessel","Dott","2026-07-01 04:02:33"
"2d194565-c818-4eec-9d31-1312d544d451","Dott",50.845597,4.409097,NA,1,NA,"BE","Bruessel","Dott","2026-07-01 04:02:33"
"e621c2e3-2781-48e6-b8f0-520c51ddb498","Dott",50.840186,4.413784,NA,1,NA,"BE","Bruessel","Dott","2026-07-01 04:02:33"
"18c01b5f-f1e6-4109-85d1-276095c17d01","Dott",50.876035,4.411641,NA,1,NA,"BE","Bruessel","Dott","2026-07-01 04:02:33"
"741260a1-94c2-47df-a88a-86aaacce4448","Dott",50.81933,4.308874,NA,1,NA,"BE","Bruessel","Dott","2026-07-01 04:02:33"
"a62ceae7-c3e8-42d0-94d3-1a1c423afe1c","Dott",50.800961,4.407373,NA,1,NA,"BE","Bruessel","Dott","2026-07-01 04:02:33"
"4c0de0b4-cad2-46a3-ae4d-255e2ab9a21b","Dott",50.881537,4.416562,NA,1,NA,"BE","Bruessel","Dott","2026-07-01 04:02:33"
"6237952e-9afd-4d0f-a966-6ad6c520fbba","Dott",50.832207,4.305962,NA,1,NA,"BE","Bruessel","Dott","2026-07-01 04:02:33"
"cb93ad14-bb2a-4bf3-997c-edbc8a99c1c1","Dott",50.827448,4.461647,NA,1,NA,"BE","Bruessel","Dott","2026-07-01 04:02:33"
"bc6d6858-6f5b-4175-8b4b-cd6979a0d69e","Dott",50.791996,4.419709,NA,1,NA,"BE","Bruessel","Dott","2026-07-01 04:02:33"
"03f818e7-e249-4309-b269-85699cb94765","Dott",50.862801,4.330624,NA,1,NA,"BE","Bruessel","Dott","2026-07-01 04:02:33"
"aba43e5e-1cf0-4a15-b96d-65b7d61e0f7d","Dott",50.81252,4.437131,NA,1,NA,"BE","Bruessel","Dott","2026-07-01 04:02:33"
"3f218979-5cf7-4fd5-a9f6-b09aa5901129","Dott",50.857866,4.350231,NA,1,NA,"BE","Bruessel","Dott","2026-07-01 04:02:33"
"3a9e0682-7fbf-4501-b87a-00850c6aeba0","Dott",50.800967,4.342602,NA,1,NA,"BE","Bruessel","Dott","2026-07-01 04:02:33"
"dc2cddfb-32c3-425c-9032-40763439992b","Dott",50.877447,4.408922,NA,1,NA,"BE","Bruessel","Dott","2026-07-01 04:02:33"
"bb36e468-ea2e-46ef-8b90-589d7f43681d","Dott",50.812491,4.437217,NA,1,NA,"BE","Bruessel","Dott","2026-07-01 04:02:33"
"67028455-7d9c-44b4-a97a-4b3ee78321dc","Dott",50.811613,4.391733,NA,1,NA,"BE","Bruessel","Dott","2026-07-01 04:02:33"
"c04c38c1-7474-437e-af30-f3244eed28fa","Dott",50.851194,4.435371,NA,1,NA,"BE","Bruessel","Dott","2026-07-01 04:02:33"
"032e5f69-efc1-4107-be17-8bd056c79b2f","Dott",50.888739,4.420232,NA,1,NA,"BE","Bruessel","Dott","2026-07-01 04:02:33"
"cdd70e9e-7eec-42d7-9423-f96e53ef4b1a","Dott",50.844001,4.38054,NA,1,NA,"BE","Bruessel","Dott","2026-07-01 04:02:33"
"73cfda4f-2c04-44c6-8493-f37fa8b65c9f","Dott",50.834887,4.357854,NA,1,NA,"BE","Bruessel","Dott","2026-07-01 04:02:33"
"279d9fd9-6fcf-4e17-8652-54399e13edbc","Dott",50.834731,4.391764,NA,1,NA,"BE","Bruessel","Dott","2026-07-01 04:02:33"
"a326880a-6749-4f30-894d-9f190161f5b9","Dott",50.810827,4.315024,NA,1,NA,"BE","Bruessel","Dott","2026-07-01 04:02:33"
"3b8a6d52-9d80-431d-99ff-c9da9330c2b6","Dott",50.869212,4.292292,NA,1,NA,"BE","Bruessel","Dott","2026-07-01 04:02:33"
"0b0c4a9d-79d8-4bb8-a0d4-3c4495e73fd2","Dott",50.83388,4.439893,NA,1,NA,"BE","Bruessel","Dott","2026-07-01 04:02:33"
"cf948e1e-c2c7-46d6-92b0-0791eafde2cd","Dott",50.813973,4.306311,NA,1,NA,"BE","Bruessel","Dott","2026-07-01 04:02:33"
"7c184067-fffd-4f2f-ac32-5dd02ca9d2e7","Dott",50.857406,4.309601,NA,1,NA,"BE","Bruessel","Dott","2026-07-01 04:02:33"
"efae171f-0b2a-4757-876e-9b44de567a73","Dott",50.825076,4.348567,NA,1,NA,"BE","Bruessel","Dott","2026-07-01 04:02:33"
"5a38bd06-caf7-4fd9-99e7-4a0e2ed82abb","Dott",50.888432,4.42455,NA,1,NA,"BE","Bruessel","Dott","2026-07-01 04:02:33"
"b8e6b1b4-b536-46b0-95da-615d22aad568","Dott",50.839282,4.408095,NA,1,NA,"BE","Bruessel","Dott","2026-07-01 04:02:33"
"d88a3c49-ac92-4482-abfd-d1b8bcd6a5f9","Dott",50.865929,4.371407,NA,1,NA,"BE","Bruessel","Dott","2026-07-01 04:02:33"
"f6e9b2b6-4e14-4874-984b-c8c9ff6bdcb3","Dott",50.877454,4.408917,NA,1,NA,"BE","Bruessel","Dott","2026-07-01 04:02:33"
"a5638468-62c4-4833-8556-5bdf2fb69353","Dott",50.839867,4.324358,NA,1,NA,"BE","Bruessel","Dott","2026-07-01 04:02:33"
"5f0cd57a-b58c-42a5-86a2-01491031b396","Dott",50.834342,4.362724,NA,1,NA,"BE","Bruessel","Dott","2026-07-01 04:02:33"
"318722e7-7678-4d51-8826-243fc1342efd","Dott",50.853087,4.437342,NA,1,NA,"BE","Bruessel","Dott","2026-07-01 04:02:33"
"eb889fc1-aca9-4fd3-87cb-353fc58bc3bc","Dott",50.82511,4.278573,NA,1,NA,"BE","Bruessel","Dott","2026-07-01 04:02:33"
"212fe850-f067-4e20-80a9-0e13e6b72954","Dott",50.848197,4.458296,NA,1,NA,"BE","Bruessel","Dott","2026-07-01 04:02:33"
"f6426d58-05a5-44f9-beca-13d3f531f1d9","Dott",50.907406,4.401239,NA,1,NA,"BE","Bruessel","Dott","2026-07-01 04:02:33"
"1ea93ff4-2320-4744-a92c-15eaa5b35117","Dott",50.817407,4.355171,NA,1,NA,"BE","Bruessel","Dott","2026-07-01 04:02:33"
"f3832dd4-8bf0-483c-984a-8b6517956edf","Dott",50.848359,4.387581,NA,1,NA,"BE","Bruessel","Dott","2026-07-01 04:02:33"
"74dee7b3-a981-42e4-9c05-257928bc21fa","Dott",50.839942,4.286133,NA,1,NA,"BE","Bruessel","Dott","2026-07-01 04:02:33"
"8bfcd7a1-d7be-49b3-af17-5dc09b5ad53b","Dott",50.83247,4.443776,NA,1,NA,"BE","Bruessel","Dott","2026-07-01 04:02:33"
"f1b0f067-f4b7-4de7-b65c-334d60408ea6","Dott",50.836708,4.353873,NA,1,NA,"BE","Bruessel","Dott","2026-07-01 04:02:33"
"254bf990-b808-4ee8-86d3-2ee1d41f9080","Dott",50.821375,4.356916,NA,1,NA,"BE","Bruessel","Dott","2026-07-01 04:02:33"
"ec599951-a77e-46d7-a082-404f42ba224a","Dott",50.838057,4.408379,NA,1,NA,"BE","Bruessel","Dott","2026-07-01 04:02:33"
"c81aa9eb-68a8-42ac-9d97-d52deda8fb37","Dott",50.864571,4.394608,NA,1,NA,"BE","Bruessel","Dott","2026-07-01 04:02:33"
"88274a70-1b19-4538-bfec-913eca74b516","Dott",50.89569,4.389695,NA,1,NA,"BE","Bruessel","Dott","2026-07-01 04:02:33"
"4885c49e-65c2-4450-8d12-9acc46f5b04c","Dott",50.888669,4.375703,NA,1,NA,"BE","Bruessel","Dott","2026-07-01 04:02:33"
"d85868ee-2ad3-496b-9162-ca7007a71201","Dott",50.859576,4.293665,NA,1,NA,"BE","Bruessel","Dott","2026-07-01 04:02:33"
"1eae69e0-4e02-4435-8f43-d81becdc2505","Dott",50.827824,4.336848,NA,1,NA,"BE","Bruessel","Dott","2026-07-01 04:02:33"
"4acded58-f5c4-4760-a78d-5630de131c6d","Dott",50.89969,4.357631,NA,1,NA,"BE","Bruessel","Dott","2026-07-01 04:02:33"
"e178bbf9-6fb4-4830-9bfd-a17aa61ac650","Dott",50.858172,4.420824,NA,1,NA,"BE","Bruessel","Dott","2026-07-01 04:02:33"
"f96074fe-6041-4696-8507-90d52cd56995","Dott",50.824915,4.34502,NA,1,NA,"BE","Bruessel","Dott","2026-07-01 04:02:33"
"9c05324b-0cc1-4515-9274-8e7c7b3f2286","Dott",50.865478,4.361996,NA,1,NA,"BE","Bruessel","Dott","2026-07-01 04:02:33"
"a62216a4-522f-4d55-82aa-bd1601e3c0ff","Dott",50.87709,4.400963,NA,1,NA,"BE","Bruessel","Dott","2026-07-01 04:02:33"
"3c8a5949-108c-4abe-8b87-c26121c27afa","Dott",50.828487,4.378117,NA,1,NA,"BE","Bruessel","Dott","2026-07-01 04:02:33"
"3f077fec-fa4b-4ebd-a3be-1297d4d41a26","Dott",50.847104,4.375199,NA,1,NA,"BE","Bruessel","Dott","2026-07-01 04:02:33"
"4d7903c8-8e8d-416a-9046-ac6f5a4ad341","Dott",50.835133,4.457335,NA,1,NA,"BE","Bruessel","Dott","2026-07-01 04:02:33"
"01f95cd8-253f-4e5d-8ad1-7a002466a18e","Dott",50.837029,4.330229,NA,1,NA,"BE","Bruessel","Dott","2026-07-01 04:02:33"
"d4c99f49-2ce6-4ac5-9c2b-2b6082255f02","Dott",50.837305,4.468116,NA,1,NA,"BE","Bruessel","Dott","2026-07-01 04:02:33"
"60f0d284-e3a4-4232-a2ce-6b400f5065f5","Dott",50.859355,4.328409,NA,1,NA,"BE","Bruessel","Dott","2026-07-01 04:02:33"
"bfbc0bfc-3f55-41fb-9db0-b13fabdcfeb5","Dott",50.854022,4.41809,NA,1,NA,"BE","Bruessel","Dott","2026-07-01 04:02:33"
"c4c95e4c-53e6-4d7f-ad9b-321827d66e2c","Dott",50.797907,4.311186,NA,1,NA,"BE","Bruessel","Dott","2026-07-01 04:02:33"
"442f553f-03aa-4595-9fc6-b26ddb922b07","Dott",50.825078,4.414462,NA,1,NA,"BE","Bruessel","Dott","2026-07-01 04:02:33"
"c02e4784-927f-42a1-94eb-2d12222b4ae3","Dott",50.811706,4.391605,NA,1,NA,"BE","Bruessel","Dott","2026-07-01 04:02:33"
"30e769ce-5a97-4bb9-99f0-155a41d212e5","Dott",50.864003,4.390156,NA,1,NA,"BE","Bruessel","Dott","2026-07-01 04:02:33"
"b9519b2a-1483-4d81-9f6a-32c79b62e5b3","Dott",50.828398,4.298973,NA,1,NA,"BE","Bruessel","Dott","2026-07-01 04:02:33"
"10c71b31-b1d7-4d96-98cb-fe39b13a6514","Dott",50.795262,4.407822,NA,1,NA,"BE","Bruessel","Dott","2026-07-01 04:02:33"
"0fe67b5f-189d-449f-a6bd-cad2d52a8ee9","Dott",50.851174,4.435363,NA,1,NA,"BE","Bruessel","Dott","2026-07-01 04:02:33"
"03707871-dbc5-44ca-9976-c73064acca49","Dott",50.847733,4.308013,NA,1,NA,"BE","Bruessel","Dott","2026-07-01 04:02:33"
"0567e6f7-b799-4a6b-8f22-aa1cedc2a371","Dott",50.845449,4.308218,NA,1,NA,"BE","Bruessel","Dott","2026-07-01 04:02:33"
"c204cb51-425d-4f3a-b7b0-2e2517a4ceb3","Dott",50.805605,4.440242,NA,1,NA,"BE","Bruessel","Dott","2026-07-01 04:02:33"
"2d3333e0-30b0-4fc8-9744-96025edfd81c","Dott",50.820371,4.302033,NA,1,NA,"BE","Bruessel","Dott","2026-07-01 04:02:33"
"b5dfd828-9a25-49cc-ba5d-90948e03ea3d","Dott",50.870732,4.291292,NA,1,NA,"BE","Bruessel","Dott","2026-07-01 04:02:33"
"3b5563c9-6130-4eb4-97fd-623a8c8ffbf3","Dott",50.835516,4.418201,NA,1,NA,"BE","Bruessel","Dott","2026-07-01 04:02:33"
"cde9a1f0-5055-460d-bc19-7210763d5ba5","Dott",50.834303,4.433,NA,1,NA,"BE","Bruessel","Dott","2026-07-01 04:02:33"
"b50343ee-8d83-4041-a291-171757cec783","Dott",50.828866,4.352204,NA,1,NA,"BE","Bruessel","Dott","2026-07-01 04:02:33"
"bc1380d9-1548-4bbd-ab63-9d6fb5f32f92","Dott",50.814148,4.413832,NA,1,NA,"BE","Bruessel","Dott","2026-07-01 04:02:33"
"1af69957-2be4-4f59-a500-b7328cff80b6","Dott",50.868104,4.35353,NA,1,NA,"BE","Bruessel","Dott","2026-07-01 04:02:33"
"63d5709d-1345-4f02-a311-6255c4005917","Dott",50.829681,4.378635,NA,1,NA,"BE","Bruessel","Dott","2026-07-01 04:02:33"
"671a0e2d-b381-4d97-8041-f3da493a0cbc","Dott",50.879266,4.401612,NA,1,NA,"BE","Bruessel","Dott","2026-07-01 04:02:33"
"5cf3da9b-ed98-4d3a-940e-b6e1a83d1d4e","Dott",50.828762,4.375132,NA,1,NA,"BE","Bruessel","Dott","2026-07-01 04:02:33"
"c100669b-3848-4486-a040-73d66bdf3e04","Dott",50.846715,4.406247,NA,1,NA,"BE","Bruessel","Dott","2026-07-01 04:02:33"
"00553b0a-aa41-4e61-a444-1731903b0162","Dott",50.822691,4.360238,NA,1,NA,"BE","Bruessel","Dott","2026-07-01 04:02:33"
"ec95df71-3bd6-4109-9454-e07c1e8e7f81","Dott",50.820505,4.354136,NA,1,NA,"BE","Bruessel","Dott","2026-07-01 04:02:33"
"59626dea-a49c-43a8-b2bb-922ac389de79","Dott",50.888404,4.424608,NA,1,NA,"BE","Bruessel","Dott","2026-07-01 04:02:33"
"4ba1203e-41df-4dbb-ba39-3ba4c1852250","Dott",50.809838,4.389857,NA,1,NA,"BE","Bruessel","Dott","2026-07-01 04:02:33"
"29278623-e78a-4545-a0d0-859b4f87b61a","Dott",50.827866,4.348041,NA,1,NA,"BE","Bruessel","Dott","2026-07-01 04:02:33"
"c895e3f4-96e3-4c2c-85bd-a57019ddedf9","Dott",50.801044,4.336571,NA,1,NA,"BE","Bruessel","Dott","2026-07-01 04:02:33"
"6ebc2486-8805-421f-9cef-c66afa15dac0","Dott",50.86963,4.363622,NA,1,NA,"BE","Bruessel","Dott","2026-07-01 04:02:33"
"8a0fe467-aeb0-4c2b-8c03-0a552ab33d5f","Dott",50.850529,4.297327,NA,1,NA,"BE","Bruessel","Dott","2026-07-01 04:02:33"
"dce88af6-06af-475d-b447-7e2a378a4869","Dott",50.833523,4.344991,NA,1,NA,"BE","Bruessel","Dott","2026-07-01 04:02:33"
"8c8f91ac-aaad-4841-8748-25f798a24788","Dott",50.893895,4.324633,NA,1,NA,"BE","Bruessel","Dott","2026-07-01 04:02:33"
"b49a80bf-f10d-406b-ba4a-e59aae2b44eb","Dott",50.895686,4.389647,NA,1,NA,"BE","Bruessel","Dott","2026-07-01 04:02:33"
"dcaa36cf-3da2-4e59-b19c-a8c45cc3f37a","Dott",50.857524,4.384168,NA,1,NA,"BE","Bruessel","Dott","2026-07-01 04:02:33"
"451fab57-4a85-44c8-b5ac-7ca61ff5c6bd","Dott",50.862511,4.337984,NA,1,NA,"BE","Bruessel","Dott","2026-07-01 04:02:33"
"a3c903c3-3f9d-48f6-9dc7-d8dc2b92298e","Dott",50.824154,4.400991,NA,1,NA,"BE","Bruessel","Dott","2026-07-01 04:02:33"
"086f25ef-d9dc-4c80-8a30-f4868764862b","Dott",50.891784,4.368399,NA,1,NA,"BE","Bruessel","Dott","2026-07-01 04:02:33"
"e1050d69-efb5-41f9-8c04-fcbed5d6ecf9","Dott",50.827612,4.344383,NA,1,NA,"BE","Bruessel","Dott","2026-07-01 04:02:33"
"1f30a7b9-09d9-402c-a712-ff70a3c8efce","Dott",50.842739,4.432116,NA,1,NA,"BE","Bruessel","Dott","2026-07-01 04:02:33"
"866e9ee7-4682-4c2a-84f8-d05e5c997a23","Dott",50.830499,4.31764,NA,1,NA,"BE","Bruessel","Dott","2026-07-01 04:02:33"
"01ec056a-6f95-4874-839a-119e16574d78","Dott",50.803168,4.327753,NA,1,NA,"BE","Bruessel","Dott","2026-07-01 04:02:33"
"9e73e49c-5211-4e3c-a21e-b81320d82e58","Dott",50.897847,4.326867,NA,1,NA,"BE","Bruessel","Dott","2026-07-01 04:02:33"
"c31d9671-3289-4ec7-bddf-fb94199288ce","Dott",50.826981,4.445097,NA,1,NA,"BE","Bruessel","Dott","2026-07-01 04:02:33"
"0d516a53-fbce-4a71-8374-7efed30ef4fd","Dott",50.871306,4.305439,NA,1,NA,"BE","Bruessel","Dott","2026-07-01 04:02:33"
"7c132f4c-2987-4a0b-b427-fa2667461f7d","Dott",50.863005,4.411457,NA,1,NA,"BE","Bruessel","Dott","2026-07-01 04:02:33"
"6550d158-a967-477e-88af-ca5975231c26","Dott",50.791906,4.320626,NA,1,NA,"BE","Bruessel","Dott","2026-07-01 04:02:33"
"2c05b1af-369d-4f91-b497-63708223160f","Dott",50.816646,4.297224,NA,1,NA,"BE","Bruessel","Dott","2026-07-01 04:02:33"
"b6ca3e28-b7f3-4cf9-8cdb-4cb5f51a11f2","Dott",50.830559,4.451003,NA,1,NA,"BE","Bruessel","Dott","2026-07-01 04:02:33"
"044bfc6e-69bd-4eee-a436-1af7080f24a9","Dott",50.823994,4.431899,NA,1,NA,"BE","Bruessel","Dott","2026-07-01 04:02:33"
"0b2a2634-fa64-4b76-9bef-bd40393dc20c","Dott",50.780675,4.325847,NA,1,NA,"BE","Bruessel","Dott","2026-07-01 04:02:33"
"986983f2-9b73-40ca-9bfc-1a081ad86c24","Dott",50.866867,4.284391,NA,1,NA,"BE","Bruessel","Dott","2026-07-01 04:02:33"
"255b907d-8560-4a93-812b-0a774b8f8fd3","Dott",50.856914,4.413191,NA,1,NA,"BE","Bruessel","Dott","2026-07-01 04:02:33"
"3e0e0206-c8bc-45d9-8b17-622c4ddb7b76","Dott",50.801739,4.37335,NA,1,NA,"BE","Bruessel","Dott","2026-07-01 04:02:33"
"415c66d1-d70e-47b0-8551-4eee9efee6e1","Dott",50.815188,4.339544,NA,1,NA,"BE","Bruessel","Dott","2026-07-01 04:02:33"
"61f935cc-f663-4e90-9cbc-f63846f715a7","Dott",50.827705,4.358626,NA,1,NA,"BE","Bruessel","Dott","2026-07-01 04:02:33"
"91db6442-4715-4bcb-b0dd-d584b3f11a5e","Dott",50.87572,4.394294,NA,1,NA,"BE","Bruessel","Dott","2026-07-01 04:02:33"
"1c2b35c5-2723-4168-b6e5-f2b45d177fd5","Dott",50.836772,4.328183,NA,1,NA,"BE","Bruessel","Dott","2026-07-01 04:02:33"
"8a2f37e8-1ac7-4d75-a44b-35f85122fb35","Dott",50.868832,4.392652,NA,1,NA,"BE","Bruessel","Dott","2026-07-01 04:02:33"
"e42e4d95-4974-44e7-89c2-8ba17bab97bc","Dott",50.819367,4.308956,NA,1,NA,"BE","Bruessel","Dott","2026-07-01 04:02:33"
"8f7f08ff-faa9-4b02-8676-ee4795540f71","Dott",50.839681,4.433913,NA,1,NA,"BE","Bruessel","Dott","2026-07-01 04:02:33"
"7d708887-98ee-4e1e-8a5c-1bf12d0097b6","Dott",50.827727,4.344438,NA,1,NA,"BE","Bruessel","Dott","2026-07-01 04:02:33"
"935979dc-d0a6-4a75-aef5-ffc056373021","Dott",50.893275,4.357548,NA,1,NA,"BE","Bruessel","Dott","2026-07-01 04:02:33"
"080c7732-8cb0-4254-8c7d-d991bca62f22","Dott",50.804729,4.342148,NA,1,NA,"BE","Bruessel","Dott","2026-07-01 04:02:33"
"a9ae7c78-2db3-431b-aafd-e3bfa1a58992","Dott",50.825794,4.302524,NA,1,NA,"BE","Bruessel","Dott","2026-07-01 04:02:33"
"da560ef1-a430-437f-bfbb-17aa20c4970c","Dott",50.803478,4.345822,NA,1,NA,"BE","Bruessel","Dott","2026-07-01 04:02:33"
"8b1d747d-0156-48c2-859b-cb429d4120e3","Dott",50.861131,4.42212,NA,1,NA,"BE","Bruessel","Dott","2026-07-01 04:02:33"
"14a4251d-424b-47bc-8e99-c51cb9d5f305","Dott",50.81678,4.340543,NA,1,NA,"BE","Bruessel","Dott","2026-07-01 04:02:33"
"de4277b3-eb27-46e7-b151-d753153cd193","Dott",50.822932,4.384775,NA,1,NA,"BE","Bruessel","Dott","2026-07-01 04:02:33"
"25d16e8d-336a-42fc-95b9-c54d349d1595","Dott",50.893645,4.392423,NA,1,NA,"BE","Bruessel","Dott","2026-07-01 04:02:33"
"0338c80e-c705-48e6-81f9-b74d1f299ae3","Dott",50.808662,4.323299,NA,1,NA,"BE","Bruessel","Dott","2026-07-01 04:02:33"
"ea16ae2a-c195-46e6-89bd-301e1dfd15ac","Dott",50.80717,4.43891,NA,1,NA,"BE","Bruessel","Dott","2026-07-01 04:02:33"
"915182e2-1c41-4283-b1b0-e1b2bfe953c3","Dott",50.891916,4.387806,NA,1,NA,"BE","Bruessel","Dott","2026-07-01 04:02:33"
"7f0e795f-64ea-4083-b620-48313206bb2a","Dott",50.859559,4.376925,NA,1,NA,"BE","Bruessel","Dott","2026-07-01 04:02:33"
"3f5f42c8-9670-4f6e-9eb2-1ecd1393b21a","Dott",50.842276,4.42748,NA,1,NA,"BE","Bruessel","Dott","2026-07-01 04:02:33"
"72a485e1-b801-4021-a12b-62a1bb0c8223","Dott",50.86974,4.37509,NA,1,NA,"BE","Bruessel","Dott","2026-07-01 04:02:33"
"6727e93f-a3ff-4fb6-a1ee-292ee320d5b3","Dott",50.837296,4.290677,NA,1,NA,"BE","Bruessel","Dott","2026-07-01 04:02:33"
"d3a6062a-0b3d-4a11-99b4-5125812fe95a","Dott",50.858366,4.315306,NA,1,NA,"BE","Bruessel","Dott","2026-07-01 04:02:33"
"7d080ad2-5b94-49d6-b5c4-a2c9edccfc50","Dott",50.868121,4.35354,NA,1,NA,"BE","Bruessel","Dott","2026-07-01 04:02:33"
"74a0a375-280f-4b9c-b1c7-1773e1783955","Dott",50.874843,4.406878,NA,1,NA,"BE","Bruessel","Dott","2026-07-01 04:02:33"
"c2665868-769f-4ecb-b72a-0e0680b76479","Dott",50.870692,4.324852,NA,1,NA,"BE","Bruessel","Dott","2026-07-01 04:02:33"
"f5849890-0764-493a-a82c-8f1f2eae731e","Dott",50.818526,4.363073,NA,1,NA,"BE","Bruessel","Dott","2026-07-01 04:02:33"
"74312295-9f5d-45ea-abb0-d8f7b239afba","Dott",50.898846,4.364322,NA,1,NA,"BE","Bruessel","Dott","2026-07-01 04:02:33"
"73bdf2cc-a53b-4478-83f4-f9b71ba47905","Dott",50.803909,4.40558,NA,1,NA,"BE","Bruessel","Dott","2026-07-01 04:02:33"
"e8b874ff-bb6b-48bd-87fb-6ea29999aea0","Dott",50.85956,4.293673,NA,1,NA,"BE","Bruessel","Dott","2026-07-01 04:02:33"
"440d5eaa-d4ae-4a1a-aeb6-6ac3df55b2ca","Dott",50.878986,4.300772,NA,1,NA,"BE","Bruessel","Dott","2026-07-01 04:02:33"
"f91dfc7d-8a23-4739-bfcc-4280221b99e4","Dott",50.80162,4.39305,NA,1,NA,"BE","Bruessel","Dott","2026-07-01 04:02:33"
"4b87baef-2bcd-4dde-a41b-6b1b7726bde8","Dott",50.906091,4.388133,NA,1,NA,"BE","Bruessel","Dott","2026-07-01 04:02:33"
"a3259eae-f6ce-4e33-880d-7a923f733649","Dott",50.812644,4.270346,NA,1,NA,"BE","Bruessel","Dott","2026-07-01 04:02:33"
"18bb865d-3600-4db2-abbf-831657e5ecb8","Dott",50.81125,4.326481,NA,1,NA,"BE","Bruessel","Dott","2026-07-01 04:02:33"
"bdb08bb7-26e1-49c8-ba78-4a8a3449db47","Dott",50.84544,4.308247,NA,1,NA,"BE","Bruessel","Dott","2026-07-01 04:02:33"
"37c233b1-6ebf-4bca-b934-1fd73c446f15","Dott",50.810948,4.319278,NA,1,NA,"BE","Bruessel","Dott","2026-07-01 04:02:33"
"8aacd10c-02b1-4657-b8eb-2e15ca82961b","Dott",50.861311,4.356141,NA,1,NA,"BE","Bruessel","Dott","2026-07-01 04:02:33"
"44997075-f076-442d-b05d-604074771d8a","Dott",50.82508,4.414504,NA,1,NA,"BE","Bruessel","Dott","2026-07-01 04:02:33"
"f6706e8d-71b8-412f-badb-9c5e1e8a0b5c","Dott",50.84187,4.450373,NA,1,NA,"BE","Bruessel","Dott","2026-07-01 04:02:33"
"e7bd891f-1312-4f84-ab09-46ac1c0ed997","Dott",50.818396,4.262163,NA,1,NA,"BE","Bruessel","Dott","2026-07-01 04:02:33"
"8bcc36cd-6b32-42ed-92cc-ddec78aa5d28","Dott",50.873,4.414513,NA,1,NA,"BE","Bruessel","Dott","2026-07-01 04:02:33"
"afbecbed-143a-446e-9071-3ad971070100","Dott",50.846811,4.324694,NA,1,NA,"BE","Bruessel","Dott","2026-07-01 04:02:33"
"d36f3060-b893-43a9-a184-5db93f343c61","Dott",50.817009,4.279331,NA,1,NA,"BE","Bruessel","Dott","2026-07-01 04:02:33"
"0eb0402b-8165-4d47-b45c-8f5cba0bec17","Dott",50.845843,4.284835,NA,1,NA,"BE","Bruessel","Dott","2026-07-01 04:02:33"
"16a3c432-2e62-4b76-ba66-0826f8bb352f","Dott",50.824191,4.333231,NA,1,NA,"BE","Bruessel","Dott","2026-07-01 04:02:33"
"5fc1edb5-aaf1-4027-8fd7-2a30e57f1faa","Dott",50.866913,4.309516,NA,1,NA,"BE","Bruessel","Dott","2026-07-01 04:02:33"
